{"type":"FeatureCollection","features":[{"type":"Feature","geometry":{"type":"LineString","coordinates":[[-3.1878,55.9444],[-3.1875046,55.9444521],[-3.1872091,55.9445042],[-3.1869137,55.9445563],[-3.1872091,55.9445042],[-3.1871065,55.9442223],[-3.1872091,55.9439404],[-3.1869091,55.9439404],[-3.1866091,55.9439404],[-3.1863091,55.9439404],[-3.1860137,55.9438883],[-3.1861163,55.9436064],[-3.1862189,55.9433245],[-3.1863215,55.9430426],[-3.1860215,55.9430426],[-3.185726,55.9430946],[-3.185426,55.9430946],[-3.1851306,55.9431467],[-3.1848306,55.9431467],[-3.1849806,55.9434066],[-3.1851734,55.9436364],[-3.1853234,55.9438962],[-3.1855163,55.944126],[-3.1855163,55.944426],[-3.1852565,55.944576],[-3.1849746,55.9446786],[-3.1850267,55.944974],[-3.1850788,55.9452695],[-3.1851814,55.9455514],[-3.1852335,55.9458468],[-3.1853361,55.9461287],[-3.185618,55.9460261],[-3.1858999,55.9459235],[-3.1861818,55.9458209],[-3.1864637,55.9457183],[-3.1867456,55.9458209],[-3.1867456,55.9455209],[-3.1867456,55.9452209],[-3.1867456,55.9455209],[-3.1870054,55.9456709],[-3.1872652,55.9458209],[-3.1875607,55.9457688],[-3.1878561,55.9457167],[-3.188138,55.9456141],[-3.1884334,55.945562],[-3.1887154,55.9454594],[-3.1889082,55.9456892],[-3.1892036,55.9456371],[-3.1894991,55.945585],[-3.1897945,55.945533],[-3.1898971,55.9458149],[-3.1897945,55.9460968],[-3.1900243,55.9459039],[-3.1902541,55.9457111],[-3.190484,55.9455183],[-3.1906768,55.9452884],[-3.1909066,55.9450956],[-3.1910092,55.9453775],[-3.1910613,55.945673],[-3.1911639,55.9459549],[-3.1914639,55.9459549],[-3.1917594,55.946007],[-3.1919094,55.9457472],[-3.1920594,55.9454873],[-3.192162,55.9452054],[-3.191862,55.9452054],[-3.191562,55.9452054],[-3.191412,55.9449456],[-3.191262,55.9446858],[-3.1910691,55.944456],[-3.1910691,55.944156],[-3.1910691,55.943856],[-3.1911212,55.9435606],[-3.1911212,55.9432606],[-3.1911212,55.9429606],[-3.191351,55.9427677],[-3.1911212,55.9429606],[-3.1908914,55.9431534],[-3.1906616,55.9433462],[-3.1904318,55.9435391],[-3.1901363,55.9435912],[-3.1900842,55.9432957],[-3.1898023,55.9431931],[-3.1895204,55.9430905],[-3.1892204,55.9430905],[-3.1893704,55.9433503],[-3.1893704,55.9436503],[-3.1892678,55.9439322],[-3.189008,55.9440822],[-3.1890601,55.9437868],[-3.1887782,55.9436842],[-3.1884828,55.9436321],[-3.1882009,55.9435295],[-3.1879009,55.9435295],[-3.1876054,55.9435816],[-3.1873054,55.9435816],[-3.1874554,55.9438414],[-3.1876054,55.9441012],[-3.1877554,55.944361]]},"properties":{}},{"type":"Feature","geometry":{"type":"Point","coordinates":[-3.186777,55.944575]},"properties":{"location":"artist.gets.react","rgb-string":"#ff8000","marker-symbol":"danger","marker-color":"#ff8000"}},{"type":"Feature","geometry":{"type":"Point","coordinates":[-3.187018,55.943982]},"properties":{"location":"renew.ears.tend","rgb-string":"#40ff00","marker-symbol":"lighthouse","marker-color":"#40ff00"}},{"type":"Feature","geometry":{"type":"Point","coordinates":[-3.186007,55.943901]},"properties":{"location":"teams.mild.played","rgb-string":"#ffc000","marker-symbol":"danger","marker-color":"#ffc000"}},{"type":"Feature","geometry":{"type":"Point","coordinates":[-3.186344,55.942958]},"properties":{"location":"hers.banks.goat","rgb-string":"#ff0000","marker-symbol":"danger","marker-color":"#ff0000"}},{"type":"Feature","geometry":{"type":"Point","coordinates":[-3.184803,55.943173]},"properties":{"location":"brings.remedy.latter","rgb-string":"#ff8000","marker-symbol":"danger","marker-color":"#ff8000"}},{"type":"Feature","geometry":{"type":"Point","coordinates":[-3.18567,55.944359]},"properties":{"location":"atoms.vanish.foods","rgb-string":"#ff0000","marker-symbol":"danger","marker-color":"#ff0000"}},{"type":"Feature","geometry":{"type":"Point","coordinates":[-3.184899,55.944736]},"properties":{"location":"slide.leads.stores","rgb-string":"#ff4000","marker-symbol":"danger","marker-color":"#ff4000"}},{"type":"Feature","geometry":{"type":"Point","coordinates":[-3.185332,55.946138]},"properties":{"location":"prime.rent.silk","rgb-string":"#ffc000","marker-symbol":"danger","marker-color":"#ffc000"}},{"type":"Feature","geometry":{"type":"Point","coordinates":[-3.186729,55.945653]},"properties":{"location":"hidden.handle.softly","rgb-string":"#ffc000","marker-symbol":"danger","marker-color":"#ffc000"}},{"type":"Feature","geometry":{"type":"Point","coordinates":[-3.186729,55.945168]},"properties":{"location":"dragon.bottle.crisp","rgb-string":"#ff4000","marker-symbol":"danger","marker-color":"#ff4000"}},{"type":"Feature","geometry":{"type":"Point","coordinates":[-3.186922,55.945437]},"properties":{"location":"spent.spoon.bolt","rgb-string":"#ff0000","marker-symbol":"danger","marker-color":"#ff0000"}},{"type":"Feature","geometry":{"type":"Point","coordinates":[-3.187404,55.945949]},"properties":{"location":"slips.mass.baking","rgb-string":"#ff0000","marker-symbol":"danger","marker-color":"#ff0000"}},{"type":"Feature","geometry":{"type":"Point","coordinates":[-3.188801,55.945437]},"properties":{"location":"shady.soft.phones","rgb-string":"#ff8000","marker-symbol":"danger","marker-color":"#ff8000"}},{"type":"Feature","geometry":{"type":"Point","coordinates":[-3.188897,55.945707]},"properties":{"location":"stops.else.chats","rgb-string":"#ff4000","marker-symbol":"danger","marker-color":"#ff4000"}},{"type":"Feature","geometry":{"type":"Point","coordinates":[-3.18986,55.945491]},"properties":{"location":"turkey.limit.ramp","rgb-string":"#00ff00","marker-symbol":"lighthouse","marker-color":"#00ff00"}},{"type":"Feature","geometry":{"type":"Point","coordinates":[-3.189957,55.94603]},"properties":{"location":"love.behind.orchestra","rgb-string":"#ffc000","marker-symbol":"danger","marker-color":"#ffc000"}},{"type":"Feature","geometry":{"type":"Point","coordinates":[-3.191016,55.944979]},"properties":{"location":"shapes.sheep.nature","rgb-string":"#c0ff00","marker-symbol":"lighthouse","marker-color":"#c0ff00"}},{"type":"Feature","geometry":{"type":"Point","coordinates":[-3.191161,55.945976]},"properties":{"location":"simple.rust.audio","rgb-string":"#ffc000","marker-symbol":"danger","marker-color":"#ffc000"}},{"type":"Feature","geometry":{"type":"Point","coordinates":[-3.191883,55.946003]},"properties":{"location":"stone.undulation.poems","rgb-string":"#ffc000","marker-symbol":"danger","marker-color":"#ffc000"}},{"type":"Feature","geometry":{"type":"Point","coordinates":[-3.192221,55.945114]},"properties":{"location":"useful.hike.trades","rgb-string":"#c0ff00","marker-symbol":"lighthouse","marker-color":"#c0ff00"}},{"type":"Feature","geometry":{"type":"Point","coordinates":[-3.191594,55.945195]},"properties":{"location":"hills.feels.tunes","rgb-string":"#ffc000","marker-symbol":"danger","marker-color":"#ffc000"}},{"type":"Feature","geometry":{"type":"Point","coordinates":[-3.191065,55.94444]},"properties":{"location":"paying.crowd.weep","rgb-string":"#40ff00","marker-symbol":"lighthouse","marker-color":"#40ff00"}},{"type":"Feature","geometry":{"type":"Point","coordinates":[-3.191161,55.943065]},"properties":{"location":"else.urban.museum","rgb-string":"#00ff00","marker-symbol":"lighthouse","marker-color":"#00ff00"}},{"type":"Feature","geometry":{"type":"Point","coordinates":[-3.191161,55.942742]},"properties":{"location":"along.spill.limp","rgb-string":"#00ff00","marker-symbol":"lighthouse","marker-color":"#00ff00"}},{"type":"Feature","geometry":{"type":"Point","coordinates":[-3.190294,55.943712]},"properties":{"location":"sculpture.shot.melon","rgb-string":"#40ff00","marker-symbol":"lighthouse","marker-color":"#40ff00"}},{"type":"Feature","geometry":{"type":"Point","coordinates":[-3.190053,55.943173]},"properties":{"location":"shows.fries.lamp","rgb-string":"#40ff00","marker-symbol":"lighthouse","marker-color":"#40ff00"}},{"type":"Feature","geometry":{"type":"Point","coordinates":[-3.189234,55.943012]},"properties":{"location":"region.passes.pencil","rgb-string":"#40ff00","marker-symbol":"lighthouse","marker-color":"#40ff00"}},{"type":"Feature","geometry":{"type":"Point","coordinates":[-3.189523,55.943551]},"properties":{"location":"cars.attend.hotels","rgb-string":"#40ff00","marker-symbol":"lighthouse","marker-color":"#40ff00"}},{"type":"Feature","geometry":{"type":"Point","coordinates":[-3.189138,55.944197]},"properties":{"location":"spoon.invest.every","rgb-string":"#40ff00","marker-symbol":"lighthouse","marker-color":"#40ff00"}},{"type":"Feature","geometry":{"type":"Point","coordinates":[-3.188945,55.943928]},"properties":{"location":"noted.friday.jams","rgb-string":"#40ff00","marker-symbol":"lighthouse","marker-color":"#40ff00"}},{"type":"Feature","geometry":{"type":"Point","coordinates":[-3.187982,55.943497]},"properties":{"location":"scare.cubs.resort","rgb-string":"#00ff00","marker-symbol":"lighthouse","marker-color":"#00ff00"}},{"type":"Feature","geometry":{"type":"Point","coordinates":[-3.187355,55.943604]},"properties":{"location":"shut.stands.media","rgb-string":"#80ff00","marker-symbol":"lighthouse","marker-color":"#80ff00"}},{"type":"Feature","geometry":{"type":"Point","coordinates":[-3.1875,55.943874]},"properties":{"location":"begins.spider.drips","rgb-string":"#80ff00","marker-symbol":"lighthouse","marker-color":"#80ff00"}}]}