{"type":"FeatureCollection","features":[{"type":"Feature","geometry":{"type":"LineString","coordinates":[[-3.1878,55.9444],[-3.18765,55.9441402],[-3.1875,55.9438804],[-3.18735,55.9436206],[-3.1872,55.9433608],[-3.18735,55.9436206],[-3.1875,55.9438804],[-3.18765,55.9441402],[-3.1878,55.9444],[-3.1880954,55.9443479],[-3.1883909,55.9442958],[-3.1886863,55.9442437],[-3.1889818,55.9441916],[-3.1889297,55.9438962],[-3.1892251,55.9438441],[-3.1895251,55.9438441],[-3.1897549,55.9440369],[-3.1900147,55.9438869],[-3.1902745,55.9437369],[-3.1904245,55.9439967],[-3.19072,55.9440488],[-3.1910019,55.9441514],[-3.1911045,55.9438695],[-3.1911045,55.9435695],[-3.1912071,55.9432876],[-3.191155,55.9429922],[-3.191155,55.9426922],[-3.1909252,55.942885],[-3.1907324,55.9431148],[-3.1905824,55.942855],[-3.1902824,55.942855],[-3.1899869,55.9429071],[-3.190039,55.9432026],[-3.190189,55.9434624],[-3.1898936,55.9435145],[-3.1895981,55.9435665],[-3.1894053,55.9433367],[-3.1892553,55.9430769],[-3.1889553,55.9430769],[-3.1886599,55.943129],[-3.1887119,55.9434245],[-3.1888619,55.9436843],[-3.1885665,55.9437364],[-3.1882711,55.9437885],[-3.1880782,55.9435586],[-3.1878854,55.9433288],[-3.1880354,55.9435886],[-3.1881854,55.9438484],[-3.188288,55.9441304],[-3.1880282,55.9442804]]},"properties":{}},{"type":"Feature","geometry":{"type":"Point","coordinates":[-3.187645,55.944143]},"properties":{"location":"bound.ends.matter","rgb-string":"#80ff00","marker-symbol":"lighthouse","marker-color":"#80ff00"}},{"type":"Feature","geometry":{"type":"Point","coordinates":[-3.187355,55.943604]},"properties":{"location":"shut.stands.media","rgb-string":"#80ff00","marker-symbol":"lighthouse","marker-color":"#80ff00"}},{"type":"Feature","geometry":{"type":"Point","coordinates":[-3.187211,55.943335]},"properties":{"location":"scale.chair.kinds","rgb-string":"#ffc000","marker-symbol":"danger","marker-color":"#ffc000"}},{"type":"Feature","geometry":{"type":"Point","coordinates":[-3.1875,55.943874]},"properties":{"location":"begins.spider.drips","rgb-string":"#c0ff00","marker-symbol":"lighthouse","marker-color":"#c0ff00"}},{"type":"Feature","geometry":{"type":"Point","coordinates":[-3.187789,55.944386]},"properties":{"location":"thank.salsa.brain","rgb-string":"#40ff00","marker-symbol":"lighthouse","marker-color":"#40ff00"}},{"type":"Feature","geometry":{"type":"Point","coordinates":[-3.188415,55.944305]},"properties":{"location":"trades.rare.cable","rgb-string":"#40ff00","marker-symbol":"lighthouse","marker-color":"#40ff00"}},{"type":"Feature","geometry":{"type":"Point","coordinates":[-3.189138,55.944197]},"properties":{"location":"spoon.invest.every","rgb-string":"#40ff00","marker-symbol":"lighthouse","marker-color":"#40ff00"}},{"type":"Feature","geometry":{"type":"Point","coordinates":[-3.188945,55.943928]},"properties":{"location":"noted.friday.jams","rgb-string":"#00ff00","marker-symbol":"lighthouse","marker-color":"#00ff00"}},{"type":"Feature","geometry":{"type":"Point","coordinates":[-3.189619,55.94382]},"properties":{"location":"burn.spot.across","rgb-string":"#40ff00","marker-symbol":"lighthouse","marker-color":"#40ff00"}},{"type":"Feature","geometry":{"type":"Point","coordinates":[-3.189812,55.94409]},"properties":{"location":"cliff.asleep.wedge","rgb-string":"#40ff00","marker-symbol":"lighthouse","marker-color":"#40ff00"}},{"type":"Feature","geometry":{"type":"Point","coordinates":[-3.190294,55.943712]},"properties":{"location":"sculpture.shot.melon","rgb-string":"#40ff00","marker-symbol":"lighthouse","marker-color":"#40ff00"}},{"type":"Feature","geometry":{"type":"Point","coordinates":[-3.190438,55.943982]},"properties":{"location":"pump.wheels.hulk","rgb-string":"#000000","marker-symbol":"cross","marker-color":"#000000"}},{"type":"Feature","geometry":{"type":"Point","coordinates":[-3.191113,55.94417]},"properties":{"location":"hills.giant.crate","rgb-string":"#00ff00","marker-symbol":"lighthouse","marker-color":"#00ff00"}},{"type":"Feature","geometry":{"type":"Point","coordinates":[-3.191113,55.943901]},"properties":{"location":"spicy.bunch.shady","rgb-string":"#000000","marker-symbol":"cross","marker-color":"#000000"}},{"type":"Feature","geometry":{"type":"Point","coordinates":[-3.191113,55.943631]},"properties":{"location":"loaf.cheer.slave","rgb-string":"#000000","marker-symbol":"cross","marker-color":"#000000"}},{"type":"Feature","geometry":{"type":"Point","coordinates":[-3.191161,55.943362]},"properties":{"location":"meal.feed.large","rgb-string":"#00ff00","marker-symbol":"lighthouse","marker-color":"#00ff00"}},{"type":"Feature","geometry":{"type":"Point","coordinates":[-3.191161,55.943065]},"properties":{"location":"else.urban.museum","rgb-string":"#00ff00","marker-symbol":"lighthouse","marker-color":"#00ff00"}},{"type":"Feature","geometry":{"type":"Point","coordinates":[-3.191161,55.942742]},"properties":{"location":"along.spill.limp","rgb-string":"#00ff00","marker-symbol":"lighthouse","marker-color":"#00ff00"}},{"type":"Feature","geometry":{"type":"Point","coordinates":[-3.190727,55.943092]},"properties":{"location":"relate.chill.vest","rgb-string":"#40ff00","marker-symbol":"lighthouse","marker-color":"#40ff00"}},{"type":"Feature","geometry":{"type":"Point","coordinates":[-3.190583,55.942823]},"properties":{"location":"tonic.bliss.cove","rgb-string":"#40ff00","marker-symbol":"lighthouse","marker-color":"#40ff00"}},{"type":"Feature","geometry":{"type":"Point","coordinates":[-3.189908,55.942904]},"properties":{"location":"second.launch.miles","rgb-string":"#40ff00","marker-symbol":"lighthouse","marker-color":"#40ff00"}},{"type":"Feature","geometry":{"type":"Point","coordinates":[-3.190053,55.943173]},"properties":{"location":"shows.fries.lamp","rgb-string":"#40ff00","marker-symbol":"lighthouse","marker-color":"#40ff00"}},{"type":"Feature","geometry":{"type":"Point","coordinates":[-3.190197,55.943443]},"properties":{"location":"arts.dish.scarcely","rgb-string":"#00ff00","marker-symbol":"lighthouse","marker-color":"#00ff00"}},{"type":"Feature","geometry":{"type":"Point","coordinates":[-3.189523,55.943551]},"properties":{"location":"cars.attend.hotels","rgb-string":"#40ff00","marker-symbol":"lighthouse","marker-color":"#40ff00"}},{"type":"Feature","geometry":{"type":"Point","coordinates":[-3.189379,55.943281]},"properties":{"location":"rents.cone.stove","rgb-string":"#40ff00","marker-symbol":"lighthouse","marker-color":"#40ff00"}},{"type":"Feature","geometry":{"type":"Point","coordinates":[-3.189234,55.943012]},"properties":{"location":"region.passes.pencil","rgb-string":"#40ff00","marker-symbol":"lighthouse","marker-color":"#40ff00"}},{"type":"Feature","geometry":{"type":"Point","coordinates":[-3.188608,55.943119]},"properties":{"location":"groups.ideas.script","rgb-string":"#80ff00","marker-symbol":"lighthouse","marker-color":"#80ff00"}},{"type":"Feature","geometry":{"type":"Point","coordinates":[-3.188704,55.943389]},"properties":{"location":"system.speak.guard","rgb-string":"#00ff00","marker-symbol":"lighthouse","marker-color":"#00ff00"}},{"type":"Feature","geometry":{"type":"Point","coordinates":[-3.188849,55.943658]},"properties":{"location":"labels.hotels.alert","rgb-string":"#00ff00","marker-symbol":"lighthouse","marker-color":"#00ff00"}},{"type":"Feature","geometry":{"type":"Point","coordinates":[-3.188126,55.943793]},"properties":{"location":"cubs.trucks.help","rgb-string":"#000000","marker-symbol":"cross","marker-color":"#000000"}},{"type":"Feature","geometry":{"type":"Point","coordinates":[-3.187837,55.943227]},"properties":{"location":"gums.clock.modes","rgb-string":"#c0ff00","marker-symbol":"lighthouse","marker-color":"#c0ff00"}},{"type":"Feature","geometry":{"type":"Point","coordinates":[-3.187982,55.943497]},"properties":{"location":"scare.cubs.resort","rgb-string":"#00ff00","marker-symbol":"lighthouse","marker-color":"#00ff00"}},{"type":"Feature","geometry":{"type":"Point","coordinates":[-3.188271,55.944063]},"properties":{"location":"rush.crown.link","rgb-string":"#00ff00","marker-symbol":"lighthouse","marker-color":"#00ff00"}}]}