{"type":"FeatureCollection","features":[{"type":"Feature","geometry":{"type":"LineString","coordinates":[[-3.1878,55.9444],[-3.1879928,55.9441702],[-3.1881857,55.9439404],[-3.1883785,55.9437106],[-3.1886083,55.9435177],[-3.1888902,55.9434151],[-3.1891721,55.9433125],[-3.1894319,55.9434625],[-3.1895346,55.9437444],[-3.1896372,55.9434625],[-3.1897872,55.9432027],[-3.1898898,55.9429208],[-3.1899419,55.9426254],[-3.1900445,55.9429073],[-3.1901471,55.9431892],[-3.1900445,55.9434711],[-3.1903043,55.9433211],[-3.1905641,55.9431711],[-3.1907939,55.9429782],[-3.1910537,55.9428282],[-3.1910537,55.9431282],[-3.1911058,55.9434237],[-3.1909558,55.9436835],[-3.1910584,55.9439654],[-3.1909558,55.9442473],[-3.190726,55.9440545],[-3.1904962,55.9438616],[-3.1901962,55.9438616],[-3.1898962,55.9438616],[-3.1895962,55.9438616],[-3.1893007,55.9439137],[-3.1890007,55.9439137],[-3.1891507,55.9441735],[-3.1888553,55.9442256],[-3.1885598,55.9442777],[-3.1886119,55.9445732],[-3.188664,55.9448686],[-3.1887161,55.9451641],[-3.1888187,55.945446],[-3.1887161,55.9457279],[-3.1890116,55.9456758],[-3.1893116,55.9456758],[-3.189209,55.9459577],[-3.1895044,55.9460098],[-3.1898044,55.9460098],[-3.1895044,55.9460098],[-3.1892044,55.9460098],[-3.1889044,55.9460098],[-3.188609,55.9460619],[-3.188459,55.9458021],[-3.188309,55.9455423],[-3.1880271,55.9456449],[-3.1877672,55.9457949],[-3.1874853,55.9458975],[-3.1872555,55.9457046],[-3.1870257,55.9455118],[-3.1867303,55.9455639],[-3.1864348,55.945616],[-3.1861394,55.9456681],[-3.1858439,55.9457202],[-3.1855485,55.9457723],[-3.1852531,55.9458244],[-3.1849531,55.9458244],[-3.1850052,55.9455289],[-3.1850572,55.9452335],[-3.1851599,55.9449516],[-3.1852119,55.9446561],[-3.1854718,55.9445061],[-3.1857718,55.9445061],[-3.1856218,55.9442463],[-3.1856738,55.9439509],[-3.1853738,55.9439509],[-3.1850784,55.9438988],[-3.1847784,55.9438988],[-3.184881,55.9436169],[-3.1848289,55.9433214],[-3.1847768,55.943026],[-3.1850723,55.9429739],[-3.1853677,55.9429218],[-3.1856496,55.9430244],[-3.1859451,55.9429723],[-3.1862451,55.9429723],[-3.1863951,55.9432321],[-3.1864977,55.943514],[-3.1867275,55.9437069],[-3.1869573,55.9438997],[-3.1872392,55.9440023],[-3.1875211,55.9441049],[-3.1877139,55.9443347]]},"properties":{}},{"type":"Feature","geometry":{"type":"Point","coordinates":[-3.188704,55.943389]},"properties":{"location":"system.speak.guard","rgb-string":"#40ff00","marker-symbol":"lighthouse","marker-color":"#40ff00"}},{"type":"Feature","geometry":{"type":"Point","coordinates":[-3.189379,55.943281]},"properties":{"location":"rents.cone.stove","rgb-string":"#80ff00","marker-symbol":"lighthouse","marker-color":"#80ff00"}},{"type":"Feature","geometry":{"type":"Point","coordinates":[-3.189523,55.943551]},"properties":{"location":"cars.attend.hotels","rgb-string":"#40ff00","marker-symbol":"lighthouse","marker-color":"#40ff00"}},{"type":"Feature","geometry":{"type":"Point","coordinates":[-3.189908,55.942904]},"properties":{"location":"second.launch.miles","rgb-string":"#00ff00","marker-symbol":"lighthouse","marker-color":"#00ff00"}},{"type":"Feature","geometry":{"type":"Point","coordinates":[-3.189764,55.942661]},"properties":{"location":"hooked.shine.third","rgb-string":"#00ff00","marker-symbol":"lighthouse","marker-color":"#00ff00"}},{"type":"Feature","geometry":{"type":"Point","coordinates":[-3.190197,55.943443]},"properties":{"location":"arts.dish.scarcely","rgb-string":"#40ff00","marker-symbol":"lighthouse","marker-color":"#40ff00"}},{"type":"Feature","geometry":{"type":"Point","coordinates":[-3.191161,55.942742]},"properties":{"location":"along.spill.limp","rgb-string":"#00ff00","marker-symbol":"lighthouse","marker-color":"#00ff00"}},{"type":"Feature","geometry":{"type":"Point","coordinates":[-3.191113,55.943631]},"properties":{"location":"loaf.cheer.slave","rgb-string":"#40ff00","marker-symbol":"lighthouse","marker-color":"#40ff00"}},{"type":"Feature","geometry":{"type":"Point","coordinates":[-3.191113,55.94417]},"properties":{"location":"hills.giant.crate","rgb-string":"#00ff00","marker-symbol":"lighthouse","marker-color":"#00ff00"}},{"type":"Feature","geometry":{"type":"Point","coordinates":[-3.190294,55.943712]},"properties":{"location":"sculpture.shot.melon","rgb-string":"#40ff00","marker-symbol":"lighthouse","marker-color":"#40ff00"}},{"type":"Feature","geometry":{"type":"Point","coordinates":[-3.188945,55.943928]},"properties":{"location":"noted.friday.jams","rgb-string":"#40ff00","marker-symbol":"lighthouse","marker-color":"#40ff00"}},{"type":"Feature","geometry":{"type":"Point","coordinates":[-3.189138,55.944197]},"properties":{"location":"spoon.invest.every","rgb-string":"#40ff00","marker-symbol":"lighthouse","marker-color":"#40ff00"}},{"type":"Feature","geometry":{"type":"Point","coordinates":[-3.188415,55.944305]},"properties":{"location":"trades.rare.cable","rgb-string":"#40ff00","marker-symbol":"lighthouse","marker-color":"#40ff00"}},{"type":"Feature","geometry":{"type":"Point","coordinates":[-3.188704,55.945168]},"properties":{"location":"rooms.lamp.teach","rgb-string":"#c0ff00","marker-symbol":"lighthouse","marker-color":"#c0ff00"}},{"type":"Feature","geometry":{"type":"Point","coordinates":[-3.188897,55.945707]},"properties":{"location":"stops.else.chats","rgb-string":"#ff0000","marker-symbol":"danger","marker-color":"#ff0000"}},{"type":"Feature","geometry":{"type":"Point","coordinates":[-3.18933,55.945653]},"properties":{"location":"museum.spicy.horns","rgb-string":"#ff0000","marker-symbol":"danger","marker-color":"#ff0000"}},{"type":"Feature","geometry":{"type":"Point","coordinates":[-3.189379,55.945949]},"properties":{"location":"coherent.saints.stuck","rgb-string":"#ff0000","marker-symbol":"danger","marker-color":"#ff0000"}},{"type":"Feature","geometry":{"type":"Point","coordinates":[-3.189957,55.94603]},"properties":{"location":"love.behind.orchestra","rgb-string":"#ff4000","marker-symbol":"danger","marker-color":"#ff4000"}},{"type":"Feature","geometry":{"type":"Point","coordinates":[-3.18856,55.946057]},"properties":{"location":"boost.radar.stress","rgb-string":"#ff4000","marker-symbol":"danger","marker-color":"#ff4000"}},{"type":"Feature","geometry":{"type":"Point","coordinates":[-3.188319,55.945518]},"properties":{"location":"skills.less.herb","rgb-string":"#ff4000","marker-symbol":"danger","marker-color":"#ff4000"}},{"type":"Feature","geometry":{"type":"Point","coordinates":[-3.187404,55.945949]},"properties":{"location":"slips.mass.baking","rgb-string":"#ffc000","marker-symbol":"danger","marker-color":"#ffc000"}},{"type":"Feature","geometry":{"type":"Point","coordinates":[-3.186922,55.945437]},"properties":{"location":"spent.spoon.bolt","rgb-string":"#ff4000","marker-symbol":"danger","marker-color":"#ff4000"}},{"type":"Feature","geometry":{"type":"Point","coordinates":[-3.185043,55.945868]},"properties":{"location":"rider.aura.bulb","rgb-string":"#ff4000","marker-symbol":"danger","marker-color":"#ff4000"}},{"type":"Feature","geometry":{"type":"Point","coordinates":[-3.185236,55.944575]},"properties":{"location":"acid.chair.butter","rgb-string":"#ff0000","marker-symbol":"danger","marker-color":"#ff0000"}},{"type":"Feature","geometry":{"type":"Point","coordinates":[-3.18567,55.944359]},"properties":{"location":"atoms.vanish.foods","rgb-string":"#ffc000","marker-symbol":"danger","marker-color":"#ffc000"}},{"type":"Feature","geometry":{"type":"Point","coordinates":[-3.185525,55.943982]},"properties":{"location":"manliness.poem.cliff","rgb-string":"#ffc000","marker-symbol":"danger","marker-color":"#ffc000"}},{"type":"Feature","geometry":{"type":"Point","coordinates":[-3.184658,55.943874]},"properties":{"location":"rider.mile.lime","rgb-string":"#ff8000","marker-symbol":"danger","marker-color":"#ff8000"}},{"type":"Feature","geometry":{"type":"Point","coordinates":[-3.184947,55.943443]},"properties":{"location":"sentences.sings.modern","rgb-string":"#ffc000","marker-symbol":"danger","marker-color":"#ffc000"}},{"type":"Feature","geometry":{"type":"Point","coordinates":[-3.184754,55.943012]},"properties":{"location":"courier.assume.bill","rgb-string":"#ff8000","marker-symbol":"danger","marker-color":"#ff8000"}},{"type":"Feature","geometry":{"type":"Point","coordinates":[-3.185573,55.942877]},"properties":{"location":"dent.shins.cycle","rgb-string":"#ff8000","marker-symbol":"danger","marker-color":"#ff8000"}},{"type":"Feature","geometry":{"type":"Point","coordinates":[-3.186344,55.942958]},"properties":{"location":"hers.banks.goat","rgb-string":"#ff8000","marker-symbol":"danger","marker-color":"#ff8000"}},{"type":"Feature","geometry":{"type":"Point","coordinates":[-3.187018,55.943982]},"properties":{"location":"renew.ears.tend","rgb-string":"#40ff00","marker-symbol":"lighthouse","marker-color":"#40ff00"}},{"type":"Feature","geometry":{"type":"Point","coordinates":[-3.187645,55.944143]},"properties":{"location":"bound.ends.matter","rgb-string":"#80ff00","marker-symbol":"lighthouse","marker-color":"#80ff00"}}]}