{"type":"FeatureCollection","features":[{"type":"Feature","geometry":{"type":"LineString","coordinates":[[-3.1878,55.9444],[-3.1880954,55.9443479],[-3.1883909,55.9442958],[-3.1882409,55.9445556],[-3.1880909,55.9448154],[-3.1881935,55.9450973],[-3.1882961,55.9453792],[-3.1883987,55.9456611],[-3.1886806,55.9457638],[-3.1889761,55.9458159],[-3.189258,55.9459185],[-3.1893606,55.9456365],[-3.189258,55.9453546],[-3.1891554,55.9450727],[-3.1894508,55.9451248],[-3.1897508,55.9451248],[-3.1900462,55.9451769],[-3.1903462,55.9451769],[-3.1906417,55.945229],[-3.1909417,55.945229],[-3.1911345,55.9454588],[-3.1914164,55.9453562],[-3.1916983,55.9452536],[-3.1919938,55.9452015],[-3.1922757,55.9450989],[-3.1919802,55.945151],[-3.1916848,55.9452031],[-3.191455,55.9450103],[-3.1912252,55.9448174],[-3.1911226,55.9445355],[-3.1911226,55.9442355],[-3.1911226,55.9439355],[-3.1911226,55.9436355],[-3.1911226,55.9433355],[-3.1911747,55.9430401],[-3.1908928,55.9431427],[-3.1906108,55.9432453],[-3.1903289,55.9433479],[-3.1900335,55.9434],[-3.1897516,55.9435026],[-3.1894561,55.9435547],[-3.1893535,55.9432728],[-3.1892509,55.9429909],[-3.1889555,55.943043],[-3.18866,55.9430951],[-3.1883781,55.9429925],[-3.1880962,55.9428899],[-3.1878143,55.9427873],[-3.1876643,55.9430471],[-3.1875143,55.9433069],[-3.1873643,55.9435667],[-3.1875143,55.9438265],[-3.1876169,55.9441084],[-3.1873215,55.9440563],[-3.187026,55.9440042],[-3.187026,55.9437042],[-3.187026,55.9434042],[-3.187026,55.9431042],[-3.187026,55.9428042],[-3.186726,55.9428042],[-3.186426,55.9428042],[-3.186126,55.9428042],[-3.1858306,55.9428563],[-3.1855306,55.9428563],[-3.1856332,55.9431382],[-3.1857832,55.943398],[-3.1858858,55.9436799],[-3.1860358,55.9439397],[-3.1857358,55.9439397],[-3.1854404,55.9439918],[-3.1852475,55.9442216],[-3.1850975,55.9444814],[-3.1849047,55.9447113],[-3.1847547,55.9449711],[-3.1845619,55.9452009],[-3.1847547,55.9454307],[-3.1849047,55.9456905],[-3.1850975,55.9459203],[-3.1853274,55.9461131],[-3.1856228,55.9460611],[-3.1857728,55.9458012],[-3.1859228,55.9455414],[-3.1860728,55.9452816],[-3.1862228,55.9450218],[-3.1863254,55.9447399],[-3.1866073,55.9446373],[-3.1869027,55.9445852],[-3.1871982,55.9445331],[-3.1874936,55.944481],[-3.1877891,55.9444289]]},"properties":{}},{"type":"Feature","geometry":{"type":"Point","coordinates":[-3.188415,55.944305]},"properties":{"location":"trades.rare.cable","rgb-string":"#40ff00","marker-symbol":"lighthouse","marker-color":"#40ff00"}},{"type":"Feature","geometry":{"type":"Point","coordinates":[-3.18803,55.944979]},"properties":{"location":"agents.mile.crib","rgb-string":"#80ff00","marker-symbol":"lighthouse","marker-color":"#80ff00"}},{"type":"Feature","geometry":{"type":"Point","coordinates":[-3.188319,55.945518]},"properties":{"location":"skills.less.herb","rgb-string":"#ff8000","marker-symbol":"danger","marker-color":"#ff8000"}},{"type":"Feature","geometry":{"type":"Point","coordinates":[-3.188463,55.945761]},"properties":{"location":"bend.tubes.chops","rgb-string":"#ff8000","marker-symbol":"danger","marker-color":"#ff8000"}},{"type":"Feature","geometry":{"type":"Point","coordinates":[-3.189379,55.945949]},"properties":{"location":"coherent.saints.stuck","rgb-string":"#ff4000","marker-symbol":"danger","marker-color":"#ff4000"}},{"type":"Feature","geometry":{"type":"Point","coordinates":[-3.18933,55.945653]},"properties":{"location":"museum.spicy.horns","rgb-string":"#ff0000","marker-symbol":"danger","marker-color":"#ff0000"}},{"type":"Feature","geometry":{"type":"Point","coordinates":[-3.189186,55.945087]},"properties":{"location":"number.exist.rate","rgb-string":"#ffc000","marker-symbol":"danger","marker-color":"#ffc000"}},{"type":"Feature","geometry":{"type":"Point","coordinates":[-3.191016,55.945248]},"properties":{"location":"maple.limit.hotels","rgb-string":"#ff8000","marker-symbol":"danger","marker-color":"#ff8000"}},{"type":"Feature","geometry":{"type":"Point","coordinates":[-3.191257,55.945599]},"properties":{"location":"skins.engage.best","rgb-string":"#ff0000","marker-symbol":"danger","marker-color":"#ff0000"}},{"type":"Feature","geometry":{"type":"Point","coordinates":[-3.192221,55.945114]},"properties":{"location":"useful.hike.trades","rgb-string":"#c0ff00","marker-symbol":"lighthouse","marker-color":"#c0ff00"}},{"type":"Feature","geometry":{"type":"Point","coordinates":[-3.191594,55.945195]},"properties":{"location":"hills.feels.tunes","rgb-string":"#000000","marker-symbol":"cross","marker-color":"#000000"}},{"type":"Feature","geometry":{"type":"Point","coordinates":[-3.191065,55.944709]},"properties":{"location":"estate.gave.votes","rgb-string":"#80ff00","marker-symbol":"lighthouse","marker-color":"#80ff00"}},{"type":"Feature","geometry":{"type":"Point","coordinates":[-3.191065,55.94444]},"properties":{"location":"paying.crowd.weep","rgb-string":"#80ff00","marker-symbol":"lighthouse","marker-color":"#80ff00"}},{"type":"Feature","geometry":{"type":"Point","coordinates":[-3.191113,55.94417]},"properties":{"location":"hills.giant.crate","rgb-string":"#000000","marker-symbol":"cross","marker-color":"#000000"}},{"type":"Feature","geometry":{"type":"Point","coordinates":[-3.191113,55.943631]},"properties":{"location":"loaf.cheer.slave","rgb-string":"#00ff00","marker-symbol":"lighthouse","marker-color":"#00ff00"}},{"type":"Feature","geometry":{"type":"Point","coordinates":[-3.191161,55.943065]},"properties":{"location":"else.urban.museum","rgb-string":"#00ff00","marker-symbol":"lighthouse","marker-color":"#00ff00"}},{"type":"Feature","geometry":{"type":"Point","coordinates":[-3.189523,55.943551]},"properties":{"location":"cars.attend.hotels","rgb-string":"#40ff00","marker-symbol":"lighthouse","marker-color":"#40ff00"}},{"type":"Feature","geometry":{"type":"Point","coordinates":[-3.189234,55.943012]},"properties":{"location":"region.passes.pencil","rgb-string":"#40ff00","marker-symbol":"lighthouse","marker-color":"#40ff00"}},{"type":"Feature","geometry":{"type":"Point","coordinates":[-3.188608,55.943119]},"properties":{"location":"groups.ideas.script","rgb-string":"#40ff00","marker-symbol":"lighthouse","marker-color":"#40ff00"}},{"type":"Feature","geometry":{"type":"Point","coordinates":[-3.187693,55.942769]},"properties":{"location":"panic.squad.danger","rgb-string":"#c0ff00","marker-symbol":"lighthouse","marker-color":"#c0ff00"}},{"type":"Feature","geometry":{"type":"Point","coordinates":[-3.187355,55.943604]},"properties":{"location":"shut.stands.media","rgb-string":"#c0ff00","marker-symbol":"lighthouse","marker-color":"#c0ff00"}},{"type":"Feature","geometry":{"type":"Point","coordinates":[-3.187645,55.944143]},"properties":{"location":"bound.ends.matter","rgb-string":"#40ff00","marker-symbol":"lighthouse","marker-color":"#40ff00"}},{"type":"Feature","geometry":{"type":"Point","coordinates":[-3.187018,55.943982]},"properties":{"location":"renew.ears.tend","rgb-string":"#c0ff00","marker-symbol":"lighthouse","marker-color":"#c0ff00"}},{"type":"Feature","geometry":{"type":"Point","coordinates":[-3.187018,55.942877]},"properties":{"location":"valve.elaborate.fortunate","rgb-string":"#ffc000","marker-symbol":"danger","marker-color":"#ffc000"}},{"type":"Feature","geometry":{"type":"Point","coordinates":[-3.185573,55.942877]},"properties":{"location":"dent.shins.cycle","rgb-string":"#ffc000","marker-symbol":"danger","marker-color":"#ffc000"}},{"type":"Feature","geometry":{"type":"Point","coordinates":[-3.186007,55.943901]},"properties":{"location":"teams.mild.played","rgb-string":"#ffc000","marker-symbol":"danger","marker-color":"#ffc000"}},{"type":"Feature","geometry":{"type":"Point","coordinates":[-3.185525,55.943982]},"properties":{"location":"manliness.poem.cliff","rgb-string":"#ff8000","marker-symbol":"danger","marker-color":"#ff8000"}},{"type":"Feature","geometry":{"type":"Point","coordinates":[-3.184513,55.945302]},"properties":{"location":"settle.title.united","rgb-string":"#ff8000","marker-symbol":"danger","marker-color":"#ff8000"}},{"type":"Feature","geometry":{"type":"Point","coordinates":[-3.185043,55.945868]},"properties":{"location":"rider.aura.bulb","rgb-string":"#ff8000","marker-symbol":"danger","marker-color":"#ff8000"}},{"type":"Feature","geometry":{"type":"Point","coordinates":[-3.185332,55.946138]},"properties":{"location":"prime.rent.silk","rgb-string":"#ff0000","marker-symbol":"danger","marker-color":"#ff0000"}},{"type":"Feature","geometry":{"type":"Point","coordinates":[-3.185814,55.94603]},"properties":{"location":"renew.slows.basket","rgb-string":"#ff0000","marker-symbol":"danger","marker-color":"#ff0000"}},{"type":"Feature","geometry":{"type":"Point","coordinates":[-3.186392,55.944656]},"properties":{"location":"rated.fired.crowds","rgb-string":"#ffc000","marker-symbol":"danger","marker-color":"#ffc000"}},{"type":"Feature","geometry":{"type":"Point","coordinates":[-3.186777,55.944575]},"properties":{"location":"artist.gets.react","rgb-string":"#ffc000","marker-symbol":"danger","marker-color":"#ffc000"}}]}