{"type":"FeatureCollection","features":[{"type":"Feature","geometry":{"type":"LineString","coordinates":[[-3.1878,55.9444],[-3.1879026,55.9446819],[-3.1880052,55.9449638],[-3.188265,55.9451138],[-3.1885248,55.9452638],[-3.1887846,55.9454138],[-3.1890444,55.9455638],[-3.1893043,55.9457138],[-3.1895641,55.9458638],[-3.189846,55.9459664],[-3.1900758,55.9457736],[-3.1902686,55.9455438],[-3.1904984,55.9453509],[-3.1907582,55.9455009],[-3.1910401,55.9456035],[-3.1913,55.9457535],[-3.1915819,55.9458561],[-3.1918417,55.9460061],[-3.1917391,55.9457242],[-3.1916365,55.9454423],[-3.1915844,55.9451469],[-3.1913545,55.9449541],[-3.1911247,55.9447612],[-3.1911247,55.9444612],[-3.1911247,55.9441612],[-3.1911247,55.9438612],[-3.1909747,55.9436014],[-3.1908247,55.9433416],[-3.1907221,55.9430597],[-3.1905721,55.9433195],[-3.1903793,55.9435493],[-3.1901865,55.9433195],[-3.1900365,55.9430597],[-3.1898436,55.9428299],[-3.1896138,55.9430227],[-3.189421,55.9432525],[-3.1892281,55.9434823],[-3.1890781,55.9437422],[-3.1888853,55.943972],[-3.1891151,55.9441648],[-3.1888197,55.9442169],[-3.1885242,55.944269],[-3.1882288,55.9442169],[-3.1879333,55.9441648],[-3.1876333,55.9441648],[-3.1874833,55.943905],[-3.1873807,55.9436231],[-3.1874833,55.9433412],[-3.1875859,55.9430593],[-3.1876886,55.9427774],[-3.1873931,55.9427253],[-3.1870977,55.9426732],[-3.1868158,55.9427758],[-3.1865339,55.9428784],[-3.1862519,55.942981],[-3.1860591,55.9432108],[-3.1858663,55.9434406],[-3.1855844,55.9435432],[-3.1853025,55.9436458],[-3.1851096,55.943416],[-3.1849168,55.9431862],[-3.1847239,55.9429564],[-3.1848266,55.9432383],[-3.1847745,55.9435337],[-3.1846719,55.9438156],[-3.1849673,55.9438677],[-3.1852627,55.9439198],[-3.1855582,55.9439719],[-3.1854082,55.9442317],[-3.1852582,55.9444915],[-3.1852582,55.9447915],[-3.1852582,55.9450915],[-3.1852582,55.9453915],[-3.1853103,55.945687],[-3.1853103,55.945987],[-3.1856057,55.9459349],[-3.1859012,55.9458828],[-3.1861831,55.9457802],[-3.1864785,55.9457281],[-3.1867604,55.9456255],[-3.1867604,55.9453255],[-3.1866104,55.9450657],[-3.1865078,55.9447838],[-3.1867897,55.9446812],[-3.1870716,55.9445786],[-3.1873535,55.944476],[-3.187649,55.9444239]]},"properties":{}},{"type":"Feature","geometry":{"type":"Point","coordinates":[-3.18803,55.944979]},"properties":{"location":"agents.mile.crib","rgb-string":"#80ff00","marker-symbol":"lighthouse","marker-color":"#80ff00"}},{"type":"Feature","geometry":{"type":"Point","coordinates":[-3.188801,55.945437]},"properties":{"location":"shady.soft.phones","rgb-string":"#ffc000","marker-symbol":"danger","marker-color":"#ffc000"}},{"type":"Feature","geometry":{"type":"Point","coordinates":[-3.189957,55.94603]},"properties":{"location":"love.behind.orchestra","rgb-string":"#ff8000","marker-symbol":"danger","marker-color":"#ff8000"}},{"type":"Feature","geometry":{"type":"Point","coordinates":[-3.190438,55.945383]},"properties":{"location":"jump.crop.fits","rgb-string":"#ffc000","marker-symbol":"danger","marker-color":"#ffc000"}},{"type":"Feature","geometry":{"type":"Point","coordinates":[-3.191883,55.946003]},"properties":{"location":"stone.undulation.poems","rgb-string":"#c0ff00","marker-symbol":"lighthouse","marker-color":"#c0ff00"}},{"type":"Feature","geometry":{"type":"Point","coordinates":[-3.191594,55.945195]},"properties":{"location":"hills.feels.tunes","rgb-string":"#ff4000","marker-symbol":"danger","marker-color":"#ff4000"}},{"type":"Feature","geometry":{"type":"Point","coordinates":[-3.191065,55.944709]},"properties":{"location":"estate.gave.votes","rgb-string":"#80ff00","marker-symbol":"lighthouse","marker-color":"#80ff00"}},{"type":"Feature","geometry":{"type":"Point","coordinates":[-3.191113,55.943901]},"properties":{"location":"spicy.bunch.shady","rgb-string":"#40ff00","marker-symbol":"lighthouse","marker-color":"#40ff00"}},{"type":"Feature","geometry":{"type":"Point","coordinates":[-3.190727,55.943092]},"properties":{"location":"relate.chill.vest","rgb-string":"#00ff00","marker-symbol":"lighthouse","marker-color":"#00ff00"}},{"type":"Feature","geometry":{"type":"Point","coordinates":[-3.190294,55.943712]},"properties":{"location":"sculpture.shot.melon","rgb-string":"#40ff00","marker-symbol":"lighthouse","marker-color":"#40ff00"}},{"type":"Feature","geometry":{"type":"Point","coordinates":[-3.190053,55.943173]},"properties":{"location":"shows.fries.lamp","rgb-string":"#00ff00","marker-symbol":"lighthouse","marker-color":"#00ff00"}},{"type":"Feature","geometry":{"type":"Point","coordinates":[-3.189908,55.942904]},"properties":{"location":"second.launch.miles","rgb-string":"#40ff00","marker-symbol":"lighthouse","marker-color":"#40ff00"}},{"type":"Feature","geometry":{"type":"Point","coordinates":[-3.189379,55.943281]},"properties":{"location":"rents.cone.stove","rgb-string":"#40ff00","marker-symbol":"lighthouse","marker-color":"#40ff00"}},{"type":"Feature","geometry":{"type":"Point","coordinates":[-3.188945,55.943928]},"properties":{"location":"noted.friday.jams","rgb-string":"#000000","marker-symbol":"cross","marker-color":"#000000"}},{"type":"Feature","geometry":{"type":"Point","coordinates":[-3.189138,55.944197]},"properties":{"location":"spoon.invest.every","rgb-string":"#40ff00","marker-symbol":"lighthouse","marker-color":"#40ff00"}},{"type":"Feature","geometry":{"type":"Point","coordinates":[-3.188415,55.944305]},"properties":{"location":"trades.rare.cable","rgb-string":"#40ff00","marker-symbol":"lighthouse","marker-color":"#40ff00"}},{"type":"Feature","geometry":{"type":"Point","coordinates":[-3.187645,55.944143]},"properties":{"location":"bound.ends.matter","rgb-string":"#ff8000","marker-symbol":"danger","marker-color":"#ff8000"}},{"type":"Feature","geometry":{"type":"Point","coordinates":[-3.187355,55.943604]},"properties":{"location":"shut.stands.media","rgb-string":"#c0ff00","marker-symbol":"lighthouse","marker-color":"#c0ff00"}},{"type":"Feature","geometry":{"type":"Point","coordinates":[-3.187693,55.942769]},"properties":{"location":"panic.squad.danger","rgb-string":"#c0ff00","marker-symbol":"lighthouse","marker-color":"#c0ff00"}},{"type":"Feature","geometry":{"type":"Point","coordinates":[-3.18697,55.942688]},"properties":{"location":"strut.river.surely","rgb-string":"#ff4000","marker-symbol":"danger","marker-color":"#ff4000"}},{"type":"Feature","geometry":{"type":"Point","coordinates":[-3.186344,55.942958]},"properties":{"location":"hers.banks.goat","rgb-string":"#ffc000","marker-symbol":"danger","marker-color":"#ffc000"}},{"type":"Feature","geometry":{"type":"Point","coordinates":[-3.185814,55.943551]},"properties":{"location":"record.sofa.sock","rgb-string":"#ff8000","marker-symbol":"danger","marker-color":"#ff8000"}},{"type":"Feature","geometry":{"type":"Point","coordinates":[-3.18514,55.943685]},"properties":{"location":"hello.love.keys","rgb-string":"#ff4000","marker-symbol":"danger","marker-color":"#ff4000"}},{"type":"Feature","geometry":{"type":"Point","coordinates":[-3.184754,55.943012]},"properties":{"location":"courier.assume.bill","rgb-string":"#ff8000","marker-symbol":"danger","marker-color":"#ff8000"}},{"type":"Feature","geometry":{"type":"Point","coordinates":[-3.184803,55.943173]},"properties":{"location":"brings.remedy.latter","rgb-string":"#ff0000","marker-symbol":"danger","marker-color":"#ff0000"}},{"type":"Feature","geometry":{"type":"Point","coordinates":[-3.184658,55.943874]},"properties":{"location":"rider.mile.lime","rgb-string":"#ffc000","marker-symbol":"danger","marker-color":"#ffc000"}},{"type":"Feature","geometry":{"type":"Point","coordinates":[-3.185525,55.943982]},"properties":{"location":"manliness.poem.cliff","rgb-string":"#c0ff00","marker-symbol":"lighthouse","marker-color":"#c0ff00"}},{"type":"Feature","geometry":{"type":"Point","coordinates":[-3.185236,55.944575]},"properties":{"location":"acid.chair.butter","rgb-string":"#ff8000","marker-symbol":"danger","marker-color":"#ff8000"}},{"type":"Feature","geometry":{"type":"Point","coordinates":[-3.185332,55.946138]},"properties":{"location":"prime.rent.silk","rgb-string":"#ff8000","marker-symbol":"danger","marker-color":"#ff8000"}},{"type":"Feature","geometry":{"type":"Point","coordinates":[-3.186729,55.945653]},"properties":{"location":"hidden.handle.softly","rgb-string":"#ff8000","marker-symbol":"danger","marker-color":"#ff8000"}},{"type":"Feature","geometry":{"type":"Point","coordinates":[-3.186729,55.945168]},"properties":{"location":"dragon.bottle.crisp","rgb-string":"#ffc000","marker-symbol":"danger","marker-color":"#ffc000"}},{"type":"Feature","geometry":{"type":"Point","coordinates":[-3.186537,55.944925]},"properties":{"location":"laws.merit.bleak","rgb-string":"#ff0000","marker-symbol":"danger","marker-color":"#ff0000"}},{"type":"Feature","geometry":{"type":"Point","coordinates":[-3.187307,55.944494]},"properties":{"location":"only.fairly.rift","rgb-string":"#c0ff00","marker-symbol":"lighthouse","marker-color":"#c0ff00"}}]}