{"type":"FeatureCollection","features":[{"type":"Feature","geometry":{"type":"LineString","coordinates":[[-3.1878,55.9444],[-3.1879026,55.9446819],[-3.1880052,55.9449638],[-3.1880052,55.9452638],[-3.1881552,55.9455236],[-3.1878598,55.9455757],[-3.1875643,55.9456278],[-3.1872643,55.9456278],[-3.1869824,55.9455252],[-3.1867896,55.9452954],[-3.1867375,55.9455908],[-3.1864777,55.9457408],[-3.1861958,55.9458434],[-3.185936,55.9459934],[-3.1856405,55.9460455],[-3.1853586,55.9461481],[-3.1855086,55.9458883],[-3.1857015,55.9456585],[-3.1858943,55.9454287],[-3.1861241,55.9452359],[-3.1863169,55.9450061],[-3.1865468,55.9448132],[-3.1867396,55.9445834],[-3.1864441,55.9446355],[-3.1862143,55.9444427],[-3.1862664,55.9441472],[-3.1859845,55.9442498],[-3.1857026,55.9443524],[-3.1854728,55.9445453],[-3.185243,55.9447381],[-3.1850132,55.9449309],[-3.1847834,55.9451238],[-3.1845235,55.9452738],[-3.1846735,55.945014],[-3.1848664,55.9447842],[-3.1848143,55.9444887],[-3.1847622,55.9441933],[-3.1846596,55.9439114],[-3.1849415,55.9438088],[-3.1852234,55.9437062],[-3.1855188,55.9436541],[-3.1858008,55.9435515],[-3.1856982,55.9432695],[-3.1858008,55.9429876],[-3.1860962,55.9429355],[-3.1863962,55.9429355],[-3.1866916,55.9428835],[-3.1869916,55.9428835],[-3.1871416,55.9426236],[-3.1874371,55.9426757],[-3.1875871,55.9429355],[-3.1877799,55.9431654],[-3.1880754,55.9432175],[-3.1883573,55.9433201],[-3.1886527,55.9433722],[-3.1889125,55.9432222],[-3.1891723,55.9430722],[-3.1892244,55.9433676],[-3.1895199,55.9433155],[-3.1898153,55.9432634],[-3.1901107,55.9432113],[-3.1904062,55.9431592],[-3.1907016,55.9431071],[-3.1907537,55.9434026],[-3.1908058,55.943698],[-3.1908579,55.9439935],[-3.19091,55.9442889],[-3.1909621,55.9445843],[-3.1910647,55.9448662],[-3.1911168,55.9451617],[-3.1912194,55.9454436],[-3.1911673,55.945739],[-3.1909745,55.9459688],[-3.1907816,55.945739],[-3.1905888,55.9455092],[-3.1902934,55.9455613],[-3.1899979,55.9456134],[-3.1896979,55.9456134],[-3.1894025,55.9456655],[-3.1891025,55.9456655],[-3.1888025,55.9456655],[-3.1886525,55.9459253],[-3.1887551,55.9456434],[-3.1888072,55.945348],[-3.1889098,55.9450661],[-3.1889619,55.9447706],[-3.1890645,55.9444887],[-3.1891166,55.9441933],[-3.1888211,55.9442454],[-3.1885257,55.9442975],[-3.1882959,55.9441046],[-3.1881459,55.9438448],[-3.1879959,55.9441046],[-3.1878459,55.9443644]]},"properties":{}},{"type":"Feature","geometry":{"type":"Point","coordinates":[-3.187885,55.944709]},"properties":{"location":"hurt.green.filer","rgb-string":"#ffc000","marker-symbol":"danger","marker-color":"#ffc000"}},{"type":"Feature","geometry":{"type":"Point","coordinates":[-3.18803,55.944979]},"properties":{"location":"agents.mile.crib","rgb-string":"#ffc000","marker-symbol":"danger","marker-color":"#ffc000"}},{"type":"Feature","geometry":{"type":"Point","coordinates":[-3.187259,55.945653]},"properties":{"location":"diner.leaves.mutual","rgb-string":"#ffc000","marker-symbol":"danger","marker-color":"#ffc000"}},{"type":"Feature","geometry":{"type":"Point","coordinates":[-3.186729,55.945168]},"properties":{"location":"dragon.bottle.crisp","rgb-string":"#000000","marker-symbol":"cross","marker-color":"#000000"}},{"type":"Feature","geometry":{"type":"Point","coordinates":[-3.186729,55.945653]},"properties":{"location":"hidden.handle.softly","rgb-string":"#ffc000","marker-symbol":"danger","marker-color":"#ffc000"}},{"type":"Feature","geometry":{"type":"Point","coordinates":[-3.185814,55.94603]},"properties":{"location":"renew.slows.basket","rgb-string":"#ff0000","marker-symbol":"danger","marker-color":"#ff0000"}},{"type":"Feature","geometry":{"type":"Point","coordinates":[-3.185332,55.946138]},"properties":{"location":"prime.rent.silk","rgb-string":"#ff8000","marker-symbol":"danger","marker-color":"#ff8000"}},{"type":"Feature","geometry":{"type":"Point","coordinates":[-3.185621,55.945761]},"properties":{"location":"shed.desire.muddy","rgb-string":"#ff4000","marker-symbol":"danger","marker-color":"#ff4000"}},{"type":"Feature","geometry":{"type":"Point","coordinates":[-3.186777,55.944575]},"properties":{"location":"artist.gets.react","rgb-string":"#c0ff00","marker-symbol":"lighthouse","marker-color":"#c0ff00"}},{"type":"Feature","geometry":{"type":"Point","coordinates":[-3.186103,55.944251]},"properties":{"location":"organs.shape.fantastic","rgb-string":"#ff8000","marker-symbol":"danger","marker-color":"#ff8000"}},{"type":"Feature","geometry":{"type":"Point","coordinates":[-3.18567,55.944359]},"properties":{"location":"atoms.vanish.foods","rgb-string":"#ff0000","marker-symbol":"danger","marker-color":"#ff0000"}},{"type":"Feature","geometry":{"type":"Point","coordinates":[-3.184513,55.945302]},"properties":{"location":"settle.title.united","rgb-string":"#ff0000","marker-symbol":"danger","marker-color":"#ff0000"}},{"type":"Feature","geometry":{"type":"Point","coordinates":[-3.184899,55.944736]},"properties":{"location":"slide.leads.stores","rgb-string":"#ff8000","marker-symbol":"danger","marker-color":"#ff8000"}},{"type":"Feature","geometry":{"type":"Point","coordinates":[-3.184658,55.943874]},"properties":{"location":"rider.mile.lime","rgb-string":"#ff4000","marker-symbol":"danger","marker-color":"#ff4000"}},{"type":"Feature","geometry":{"type":"Point","coordinates":[-3.185814,55.943551]},"properties":{"location":"record.sofa.sock","rgb-string":"#ff8000","marker-symbol":"danger","marker-color":"#ff8000"}},{"type":"Feature","geometry":{"type":"Point","coordinates":[-3.185621,55.943065]},"properties":{"location":"toned.deflection.bland","rgb-string":"#ffc000","marker-symbol":"danger","marker-color":"#ffc000"}},{"type":"Feature","geometry":{"type":"Point","coordinates":[-3.187018,55.942877]},"properties":{"location":"valve.elaborate.fortunate","rgb-string":"#c0ff00","marker-symbol":"lighthouse","marker-color":"#c0ff00"}},{"type":"Feature","geometry":{"type":"Point","coordinates":[-3.18697,55.942688]},"properties":{"location":"strut.river.surely","rgb-string":"#000000","marker-symbol":"cross","marker-color":"#000000"}},{"type":"Feature","geometry":{"type":"Point","coordinates":[-3.187693,55.942769]},"properties":{"location":"panic.squad.danger","rgb-string":"#ffc000","marker-symbol":"danger","marker-color":"#ffc000"}},{"type":"Feature","geometry":{"type":"Point","coordinates":[-3.187837,55.943227]},"properties":{"location":"gums.clock.modes","rgb-string":"#40ff00","marker-symbol":"lighthouse","marker-color":"#40ff00"}},{"type":"Feature","geometry":{"type":"Point","coordinates":[-3.188704,55.943389]},"properties":{"location":"system.speak.guard","rgb-string":"#00ff00","marker-symbol":"lighthouse","marker-color":"#00ff00"}},{"type":"Feature","geometry":{"type":"Point","coordinates":[-3.189234,55.943012]},"properties":{"location":"region.passes.pencil","rgb-string":"#40ff00","marker-symbol":"lighthouse","marker-color":"#40ff00"}},{"type":"Feature","geometry":{"type":"Point","coordinates":[-3.189379,55.943281]},"properties":{"location":"rents.cone.stove","rgb-string":"#000000","marker-symbol":"cross","marker-color":"#000000"}},{"type":"Feature","geometry":{"type":"Point","coordinates":[-3.190727,55.943092]},"properties":{"location":"relate.chill.vest","rgb-string":"#40ff00","marker-symbol":"lighthouse","marker-color":"#40ff00"}},{"type":"Feature","geometry":{"type":"Point","coordinates":[-3.191257,55.945599]},"properties":{"location":"skins.engage.best","rgb-string":"#000000","marker-symbol":"cross","marker-color":"#000000"}},{"type":"Feature","geometry":{"type":"Point","coordinates":[-3.191161,55.945976]},"properties":{"location":"simple.rust.audio","rgb-string":"#ff8000","marker-symbol":"danger","marker-color":"#ff8000"}},{"type":"Feature","geometry":{"type":"Point","coordinates":[-3.190438,55.945383]},"properties":{"location":"jump.crop.fits","rgb-string":"#ff8000","marker-symbol":"danger","marker-color":"#ff8000"}},{"type":"Feature","geometry":{"type":"Point","coordinates":[-3.188897,55.945707]},"properties":{"location":"stops.else.chats","rgb-string":"#ff4000","marker-symbol":"danger","marker-color":"#ff4000"}},{"type":"Feature","geometry":{"type":"Point","coordinates":[-3.18856,55.946057]},"properties":{"location":"boost.radar.stress","rgb-string":"#ff8000","marker-symbol":"danger","marker-color":"#ff8000"}},{"type":"Feature","geometry":{"type":"Point","coordinates":[-3.189138,55.944197]},"properties":{"location":"spoon.invest.every","rgb-string":"#40ff00","marker-symbol":"lighthouse","marker-color":"#40ff00"}},{"type":"Feature","geometry":{"type":"Point","coordinates":[-3.188415,55.944305]},"properties":{"location":"trades.rare.cable","rgb-string":"#40ff00","marker-symbol":"lighthouse","marker-color":"#40ff00"}},{"type":"Feature","geometry":{"type":"Point","coordinates":[-3.188271,55.944063]},"properties":{"location":"rush.crown.link","rgb-string":"#00ff00","marker-symbol":"lighthouse","marker-color":"#00ff00"}},{"type":"Feature","geometry":{"type":"Point","coordinates":[-3.188126,55.943793]},"properties":{"location":"cubs.trucks.help","rgb-string":"#ff0000","marker-symbol":"danger","marker-color":"#ff0000"}}]}