{"type":"FeatureCollection","features":[{"type":"Feature","geometry":{"type":"LineString","coordinates":[[-3.1878,55.9444],[-3.18795,55.9441402],[-3.1881,55.9438804],[-3.18825,55.9436206],[-3.1884428,55.9433908],[-3.1885928,55.943131],[-3.1888883,55.9430789],[-3.1891837,55.9430268],[-3.1894435,55.9428768],[-3.189739,55.9428247],[-3.189889,55.9430845],[-3.1896592,55.9432773],[-3.1894293,55.9434702],[-3.1891995,55.943663],[-3.1890067,55.9438928],[-3.1891093,55.9441747],[-3.1894047,55.9441226],[-3.1897047,55.9441226],[-3.1899346,55.9439298],[-3.1901644,55.9437369],[-3.1904242,55.9435869],[-3.190654,55.9433941],[-3.1909138,55.9432441],[-3.1911436,55.9430513],[-3.1911436,55.9433513],[-3.1909508,55.9435811],[-3.1910534,55.943863],[-3.1911055,55.9441584],[-3.1909126,55.9443882],[-3.1910626,55.9446481],[-3.1913445,55.9447507],[-3.1916265,55.9448533],[-3.1919084,55.9449559],[-3.1921682,55.9451059],[-3.1918863,55.9452085],[-3.1916044,55.9453111],[-3.1913224,55.9454137],[-3.1910405,55.9455163],[-3.1907451,55.9455684],[-3.1904632,55.945671],[-3.1901677,55.9457231],[-3.1898858,55.9458257],[-3.1895904,55.9458778],[-3.1892904,55.9458778],[-3.188995,55.9459299],[-3.188713,55.9460325],[-3.1887651,55.9457371],[-3.1888172,55.9454416],[-3.1885172,55.9454416],[-3.1882172,55.9454416],[-3.1879218,55.9454937],[-3.1876218,55.9454937],[-3.1873264,55.9455458],[-3.1870309,55.9455979],[-3.186749,55.9457005],[-3.1864671,55.9458031],[-3.1861852,55.9459057],[-3.1859033,55.9460083],[-3.1856735,55.9458155],[-3.1854437,55.9456226],[-3.1851838,55.9454726],[-3.184954,55.9452798],[-3.1846942,55.9451298],[-3.1843942,55.9451298],[-3.1845871,55.9449],[-3.1848169,55.9447072],[-3.1850097,55.9444773],[-3.1852395,55.9442845],[-3.1854324,55.9440547],[-3.1857324,55.9440547],[-3.1860324,55.9440547],[-3.1863324,55.9440547],[-3.1866278,55.9440026],[-3.1869278,55.9440026],[-3.1867778,55.9437428],[-3.1866278,55.943483],[-3.186368,55.943333],[-3.1863159,55.9430375],[-3.1860159,55.9430375],[-3.1857159,55.9430375],[-3.1855231,55.9432674],[-3.1853302,55.9434972],[-3.1850348,55.9435493],[-3.1848848,55.9432895],[-3.1847348,55.9430296],[-3.1850302,55.9429776],[-3.1853257,55.9429255],[-3.1855855,55.9430755],[-3.1858674,55.9429729],[-3.1861493,55.9428702],[-3.1864447,55.9428182],[-3.1867402,55.9427661],[-3.1870221,55.9428687],[-3.1867221,55.9428687],[-3.1870221,55.9428687],[-3.1871247,55.9431506],[-3.1870726,55.943446],[-3.1872654,55.9436758],[-3.1874583,55.9439056],[-3.1876083,55.9441654],[-3.1876083,55.9444654],[-3.1878011,55.9446953],[-3.1879939,55.9449251],[-3.1878913,55.9446432]]},"properties":{}},{"type":"Feature","geometry":{"type":"Point","coordinates":[-3.188608,55.943119]},"properties":{"location":"groups.ideas.script","rgb-string":"#80ff00","marker-symbol":"lighthouse","marker-color":"#80ff00"}},{"type":"Feature","geometry":{"type":"Point","coordinates":[-3.189234,55.943012]},"properties":{"location":"region.passes.pencil","rgb-string":"#40ff00","marker-symbol":"lighthouse","marker-color":"#40ff00"}},{"type":"Feature","geometry":{"type":"Point","coordinates":[-3.189764,55.942661]},"properties":{"location":"hooked.shine.third","rgb-string":"#40ff00","marker-symbol":"lighthouse","marker-color":"#40ff00"}},{"type":"Feature","geometry":{"type":"Point","coordinates":[-3.189908,55.942904]},"properties":{"location":"second.launch.miles","rgb-string":"#000000","marker-symbol":"cross","marker-color":"#000000"}},{"type":"Feature","geometry":{"type":"Point","coordinates":[-3.188945,55.943928]},"properties":{"location":"noted.friday.jams","rgb-string":"#40ff00","marker-symbol":"lighthouse","marker-color":"#40ff00"}},{"type":"Feature","geometry":{"type":"Point","coordinates":[-3.189138,55.944197]},"properties":{"location":"spoon.invest.every","rgb-string":"#40ff00","marker-symbol":"lighthouse","marker-color":"#40ff00"}},{"type":"Feature","geometry":{"type":"Point","coordinates":[-3.189812,55.94409]},"properties":{"location":"cliff.asleep.wedge","rgb-string":"#40ff00","marker-symbol":"lighthouse","marker-color":"#40ff00"}},{"type":"Feature","geometry":{"type":"Point","coordinates":[-3.191161,55.943065]},"properties":{"location":"else.urban.museum","rgb-string":"#000000","marker-symbol":"cross","marker-color":"#000000"}},{"type":"Feature","geometry":{"type":"Point","coordinates":[-3.191113,55.943631]},"properties":{"location":"loaf.cheer.slave","rgb-string":"#00ff00","marker-symbol":"lighthouse","marker-color":"#00ff00"}},{"type":"Feature","geometry":{"type":"Point","coordinates":[-3.191113,55.94417]},"properties":{"location":"hills.giant.crate","rgb-string":"#00ff00","marker-symbol":"lighthouse","marker-color":"#00ff00"}},{"type":"Feature","geometry":{"type":"Point","coordinates":[-3.191065,55.94444]},"properties":{"location":"paying.crowd.weep","rgb-string":"#000000","marker-symbol":"cross","marker-color":"#000000"}},{"type":"Feature","geometry":{"type":"Point","coordinates":[-3.191065,55.944709]},"properties":{"location":"estate.gave.votes","rgb-string":"#40ff00","marker-symbol":"lighthouse","marker-color":"#40ff00"}},{"type":"Feature","geometry":{"type":"Point","coordinates":[-3.192221,55.945114]},"properties":{"location":"useful.hike.trades","rgb-string":"#ffc000","marker-symbol":"danger","marker-color":"#ffc000"}},{"type":"Feature","geometry":{"type":"Point","coordinates":[-3.189379,55.945949]},"properties":{"location":"coherent.saints.stuck","rgb-string":"#ff0000","marker-symbol":"danger","marker-color":"#ff0000"}},{"type":"Feature","geometry":{"type":"Point","coordinates":[-3.18856,55.946057]},"properties":{"location":"boost.radar.stress","rgb-string":"#ff4000","marker-symbol":"danger","marker-color":"#ff4000"}},{"type":"Feature","geometry":{"type":"Point","coordinates":[-3.188801,55.945437]},"properties":{"location":"shady.soft.phones","rgb-string":"#ffc000","marker-symbol":"danger","marker-color":"#ffc000"}},{"type":"Feature","geometry":{"type":"Point","coordinates":[-3.186922,55.945437]},"properties":{"location":"spent.spoon.bolt","rgb-string":"#ff4000","marker-symbol":"danger","marker-color":"#ff4000"}},{"type":"Feature","geometry":{"type":"Point","coordinates":[-3.185814,55.94603]},"properties":{"location":"renew.slows.basket","rgb-string":"#ff8000","marker-symbol":"danger","marker-color":"#ff8000"}},{"type":"Feature","geometry":{"type":"Point","coordinates":[-3.184465,55.944952]},"properties":{"location":"sports.topic.clocks","rgb-string":"#ff4000","marker-symbol":"danger","marker-color":"#ff4000"}},{"type":"Feature","geometry":{"type":"Point","coordinates":[-3.185525,55.943982]},"properties":{"location":"manliness.poem.cliff","rgb-string":"#c0ff00","marker-symbol":"lighthouse","marker-color":"#c0ff00"}},{"type":"Feature","geometry":{"type":"Point","coordinates":[-3.187018,55.943982]},"properties":{"location":"renew.ears.tend","rgb-string":"#c0ff00","marker-symbol":"lighthouse","marker-color":"#c0ff00"}},{"type":"Feature","geometry":{"type":"Point","coordinates":[-3.186344,55.942958]},"properties":{"location":"hers.banks.goat","rgb-string":"#ffc000","marker-symbol":"danger","marker-color":"#ffc000"}},{"type":"Feature","geometry":{"type":"Point","coordinates":[-3.185621,55.943065]},"properties":{"location":"toned.deflection.bland","rgb-string":"#ffc000","marker-symbol":"danger","marker-color":"#ffc000"}},{"type":"Feature","geometry":{"type":"Point","coordinates":[-3.18514,55.943685]},"properties":{"location":"hello.love.keys","rgb-string":"#ffc000","marker-symbol":"danger","marker-color":"#ffc000"}},{"type":"Feature","geometry":{"type":"Point","coordinates":[-3.184803,55.943173]},"properties":{"location":"brings.remedy.latter","rgb-string":"#ff0000","marker-symbol":"danger","marker-color":"#ff0000"}},{"type":"Feature","geometry":{"type":"Point","coordinates":[-3.184754,55.943012]},"properties":{"location":"courier.assume.bill","rgb-string":"#ff4000","marker-symbol":"danger","marker-color":"#ff4000"}},{"type":"Feature","geometry":{"type":"Point","coordinates":[-3.185573,55.942877]},"properties":{"location":"dent.shins.cycle","rgb-string":"#ff0000","marker-symbol":"danger","marker-color":"#ff0000"}},{"type":"Feature","geometry":{"type":"Point","coordinates":[-3.186248,55.942796]},"properties":{"location":"under.retire.bump","rgb-string":"#ff0000","marker-symbol":"danger","marker-color":"#ff0000"}},{"type":"Feature","geometry":{"type":"Point","coordinates":[-3.18697,55.942688]},"properties":{"location":"strut.river.surely","rgb-string":"#ffc000","marker-symbol":"danger","marker-color":"#ffc000"}},{"type":"Feature","geometry":{"type":"Point","coordinates":[-3.187018,55.942877]},"properties":{"location":"valve.elaborate.fortunate","rgb-string":"#00ff00","marker-symbol":"lighthouse","marker-color":"#00ff00"}},{"type":"Feature","geometry":{"type":"Point","coordinates":[-3.187211,55.943335]},"properties":{"location":"scale.chair.kinds","rgb-string":"#ffc000","marker-symbol":"danger","marker-color":"#ffc000"}},{"type":"Feature","geometry":{"type":"Point","coordinates":[-3.187789,55.944386]},"properties":{"location":"thank.salsa.brain","rgb-string":"#80ff00","marker-symbol":"lighthouse","marker-color":"#80ff00"}},{"type":"Feature","geometry":{"type":"Point","coordinates":[-3.18803,55.944979]},"properties":{"location":"agents.mile.crib","rgb-string":"#c0ff00","marker-symbol":"lighthouse","marker-color":"#c0ff00"}}]}