{"type":"FeatureCollection","features":[{"type":"Feature","geometry":{"type":"LineString","coordinates":[[-3.1878,55.9444],[-3.1875702,55.9445928],[-3.1872702,55.9445928],[-3.1869747,55.9446449],[-3.1867149,55.9447949],[-3.186433,55.9448975],[-3.1866628,55.9450904],[-3.1867149,55.9453858],[-3.1865649,55.9456456],[-3.1868468,55.9457482],[-3.1871288,55.9458508],[-3.1873216,55.9460806],[-3.1876035,55.945978],[-3.1878989,55.9459259],[-3.1881808,55.9458233],[-3.1884628,55.9459259],[-3.1886128,55.9456661],[-3.1888947,55.9455635],[-3.1891766,55.9456661],[-3.1894585,55.9457687],[-3.1897183,55.9459187],[-3.1898683,55.9461786],[-3.1896385,55.9459857],[-3.1894456,55.9457559],[-3.1892528,55.9455261],[-3.1891028,55.9452663],[-3.18891,55.9450365],[-3.18876,55.9447767],[-3.1885671,55.9445468],[-3.1885671,55.9442468],[-3.1887969,55.944054],[-3.1890969,55.944054],[-3.1893969,55.944054],[-3.1896969,55.944054],[-3.1899924,55.9440019],[-3.1902924,55.9440019],[-3.1904852,55.9442317],[-3.1906781,55.9444615],[-3.1908281,55.9447214],[-3.1910209,55.9449512],[-3.191073,55.9452466],[-3.1911251,55.9455421],[-3.1911251,55.9458421],[-3.1911251,55.9455421],[-3.1911251,55.9452421],[-3.1911251,55.9449421],[-3.191073,55.9446466],[-3.191223,55.9443868],[-3.1912751,55.9440914],[-3.1911725,55.9438095],[-3.1908906,55.9437068],[-3.1906087,55.9436042],[-3.1903268,55.9435016],[-3.1901339,55.9432718],[-3.1899839,55.943012],[-3.1896839,55.943012],[-3.1893885,55.9430641],[-3.1890885,55.9430641],[-3.188793,55.9431162],[-3.1885332,55.9432662],[-3.1882513,55.9433688],[-3.1879513,55.9433688],[-3.1876915,55.9432188],[-3.1874317,55.9430688],[-3.1871498,55.9429662],[-3.1868498,55.9429662],[-3.1865498,55.9429662],[-3.1862498,55.9429662],[-3.1861977,55.9432616],[-3.1860951,55.9435436],[-3.186043,55.943839],[-3.1858502,55.9436092],[-3.1857476,55.9433273],[-3.1856449,55.9430454],[-3.1853449,55.9430454],[-3.1856449,55.9430454],[-3.1854521,55.9432752],[-3.1852593,55.943505],[-3.1849774,55.9436076],[-3.1849774,55.9439076],[-3.1849774,55.9442076],[-3.1849774,55.9445076],[-3.1849774,55.9448076],[-3.1849774,55.9451076],[-3.1849774,55.9454076],[-3.1850295,55.945703],[-3.1853249,55.9457551],[-3.1855547,55.945948],[-3.1857476,55.9457182],[-3.1859404,55.9454883],[-3.1861702,55.9452955],[-3.186363,55.9450657],[-3.186663,55.9450657],[-3.186513,55.9448059],[-3.186363,55.9445461],[-3.1861332,55.9443532],[-3.1863261,55.9441234],[-3.1866215,55.9440713],[-3.1869169,55.9440192],[-3.1872124,55.9440713],[-3.1875078,55.9441234],[-3.1877676,55.9439734],[-3.1880274,55.9438234],[-3.1879248,55.9441053],[-3.1878222,55.9443872]]},"properties":{}},{"type":"Feature","geometry":{"type":"Point","coordinates":[-3.186729,55.945168]},"properties":{"location":"dragon.bottle.crisp","rgb-string":"#ff4000","marker-symbol":"danger","marker-color":"#ff4000"}},{"type":"Feature","geometry":{"type":"Point","coordinates":[-3.186729,55.945653]},"properties":{"location":"hidden.handle.softly","rgb-string":"#000000","marker-symbol":"cross","marker-color":"#000000"}},{"type":"Feature","geometry":{"type":"Point","coordinates":[-3.187404,55.945949]},"properties":{"location":"slips.mass.baking","rgb-string":"#c0ff00","marker-symbol":"lighthouse","marker-color":"#c0ff00"}},{"type":"Feature","geometry":{"type":"Point","coordinates":[-3.188463,55.945761]},"properties":{"location":"bend.tubes.chops","rgb-string":"#ffc000","marker-symbol":"danger","marker-color":"#ffc000"}},{"type":"Feature","geometry":{"type":"Point","coordinates":[-3.188801,55.945437]},"properties":{"location":"shady.soft.phones","rgb-string":"#c0ff00","marker-symbol":"lighthouse","marker-color":"#c0ff00"}},{"type":"Feature","geometry":{"type":"Point","coordinates":[-3.189957,55.94603]},"properties":{"location":"love.behind.orchestra","rgb-string":"#ff8000","marker-symbol":"danger","marker-color":"#ff8000"}},{"type":"Feature","geometry":{"type":"Point","coordinates":[-3.18933,55.945653]},"properties":{"location":"museum.spicy.horns","rgb-string":"#ff8000","marker-symbol":"danger","marker-color":"#ff8000"}},{"type":"Feature","geometry":{"type":"Point","coordinates":[-3.188415,55.944305]},"properties":{"location":"trades.rare.cable","rgb-string":"#40ff00","marker-symbol":"lighthouse","marker-color":"#40ff00"}},{"type":"Feature","geometry":{"type":"Point","coordinates":[-3.188945,55.943928]},"properties":{"location":"noted.friday.jams","rgb-string":"#00ff00","marker-symbol":"lighthouse","marker-color":"#00ff00"}},{"type":"Feature","geometry":{"type":"Point","coordinates":[-3.190438,55.943982]},"properties":{"location":"pump.wheels.hulk","rgb-string":"#40ff00","marker-symbol":"lighthouse","marker-color":"#40ff00"}},{"type":"Feature","geometry":{"type":"Point","coordinates":[-3.191016,55.944979]},"properties":{"location":"shapes.sheep.nature","rgb-string":"#ff8000","marker-symbol":"danger","marker-color":"#ff8000"}},{"type":"Feature","geometry":{"type":"Point","coordinates":[-3.191161,55.945976]},"properties":{"location":"simple.rust.audio","rgb-string":"#ffc000","marker-symbol":"danger","marker-color":"#ffc000"}},{"type":"Feature","geometry":{"type":"Point","coordinates":[-3.191065,55.94444]},"properties":{"location":"paying.crowd.weep","rgb-string":"#80ff00","marker-symbol":"lighthouse","marker-color":"#80ff00"}},{"type":"Feature","geometry":{"type":"Point","coordinates":[-3.191113,55.94417]},"properties":{"location":"hills.giant.crate","rgb-string":"#40ff00","marker-symbol":"lighthouse","marker-color":"#40ff00"}},{"type":"Feature","geometry":{"type":"Point","coordinates":[-3.191113,55.943631]},"properties":{"location":"loaf.cheer.slave","rgb-string":"#40ff00","marker-symbol":"lighthouse","marker-color":"#40ff00"}},{"type":"Feature","geometry":{"type":"Point","coordinates":[-3.190197,55.943443]},"properties":{"location":"arts.dish.scarcely","rgb-string":"#00ff00","marker-symbol":"lighthouse","marker-color":"#00ff00"}},{"type":"Feature","geometry":{"type":"Point","coordinates":[-3.189908,55.942904]},"properties":{"location":"second.launch.miles","rgb-string":"#40ff00","marker-symbol":"lighthouse","marker-color":"#40ff00"}},{"type":"Feature","geometry":{"type":"Point","coordinates":[-3.188608,55.943119]},"properties":{"location":"groups.ideas.script","rgb-string":"#40ff00","marker-symbol":"lighthouse","marker-color":"#40ff00"}},{"type":"Feature","geometry":{"type":"Point","coordinates":[-3.187982,55.943497]},"properties":{"location":"scare.cubs.resort","rgb-string":"#000000","marker-symbol":"cross","marker-color":"#000000"}},{"type":"Feature","geometry":{"type":"Point","coordinates":[-3.187018,55.942877]},"properties":{"location":"valve.elaborate.fortunate","rgb-string":"#ff8000","marker-symbol":"danger","marker-color":"#ff8000"}},{"type":"Feature","geometry":{"type":"Point","coordinates":[-3.186344,55.942958]},"properties":{"location":"hers.banks.goat","rgb-string":"#ff4000","marker-symbol":"danger","marker-color":"#ff4000"}},{"type":"Feature","geometry":{"type":"Point","coordinates":[-3.186007,55.943901]},"properties":{"location":"teams.mild.played","rgb-string":"#ff8000","marker-symbol":"danger","marker-color":"#ff8000"}},{"type":"Feature","geometry":{"type":"Point","coordinates":[-3.185814,55.943551]},"properties":{"location":"record.sofa.sock","rgb-string":"#ff4000","marker-symbol":"danger","marker-color":"#ff4000"}},{"type":"Feature","geometry":{"type":"Point","coordinates":[-3.185573,55.942877]},"properties":{"location":"dent.shins.cycle","rgb-string":"#ff8000","marker-symbol":"danger","marker-color":"#ff8000"}},{"type":"Feature","geometry":{"type":"Point","coordinates":[-3.185621,55.943065]},"properties":{"location":"toned.deflection.bland","rgb-string":"#c0ff00","marker-symbol":"lighthouse","marker-color":"#c0ff00"}},{"type":"Feature","geometry":{"type":"Point","coordinates":[-3.18514,55.943685]},"properties":{"location":"hello.love.keys","rgb-string":"#ff8000","marker-symbol":"danger","marker-color":"#ff8000"}},{"type":"Feature","geometry":{"type":"Point","coordinates":[-3.185043,55.945868]},"properties":{"location":"rider.aura.bulb","rgb-string":"#ff4000","marker-symbol":"danger","marker-color":"#ff4000"}},{"type":"Feature","geometry":{"type":"Point","coordinates":[-3.185621,55.945761]},"properties":{"location":"shed.desire.muddy","rgb-string":"#ffc000","marker-symbol":"danger","marker-color":"#ffc000"}},{"type":"Feature","geometry":{"type":"Point","coordinates":[-3.186537,55.944925]},"properties":{"location":"laws.merit.bleak","rgb-string":"#ffc000","marker-symbol":"danger","marker-color":"#ffc000"}},{"type":"Feature","geometry":{"type":"Point","coordinates":[-3.186537,55.944063]},"properties":{"location":"lime.learns.front","rgb-string":"#ff8000","marker-symbol":"danger","marker-color":"#ff8000"}},{"type":"Feature","geometry":{"type":"Point","coordinates":[-3.187018,55.943982]},"properties":{"location":"renew.ears.tend","rgb-string":"#80ff00","marker-symbol":"lighthouse","marker-color":"#80ff00"}},{"type":"Feature","geometry":{"type":"Point","coordinates":[-3.187645,55.944143]},"properties":{"location":"bound.ends.matter","rgb-string":"#40ff00","marker-symbol":"lighthouse","marker-color":"#40ff00"}},{"type":"Feature","geometry":{"type":"Point","coordinates":[-3.188126,55.943793]},"properties":{"location":"cubs.trucks.help","rgb-string":"#00ff00","marker-symbol":"lighthouse","marker-color":"#00ff00"}}]}