{"type":"FeatureCollection","features":[{"type":"Feature","geometry":{"type":"LineString","coordinates":[[-3.1878,55.9444],[-3.1876072,55.9441702],[-3.1878,55.9444],[-3.1878521,55.9441046],[-3.1879042,55.9438091],[-3.1879563,55.9435137],[-3.1878537,55.9432318],[-3.1875718,55.9431292],[-3.1872763,55.9430771],[-3.1869944,55.9429745],[-3.186699,55.9429224],[-3.1864171,55.9428198],[-3.1866469,55.9430126],[-3.1868767,55.9432054],[-3.1871065,55.9433983],[-3.1873363,55.9435911],[-3.1871435,55.9438209],[-3.1869507,55.9440507],[-3.1866552,55.9439986],[-3.1863598,55.9439465],[-3.1860643,55.9438944],[-3.1857689,55.9439465],[-3.1854734,55.9439986],[-3.1852806,55.9437688],[-3.1851306,55.943509],[-3.1849378,55.9432792],[-3.1847878,55.9430194],[-3.1847357,55.9433148],[-3.1846836,55.9436103],[-3.1846315,55.9439057],[-3.1848243,55.9441355],[-3.1850172,55.9443653],[-3.185247,55.9445582],[-3.1853496,55.9448401],[-3.1854522,55.945122],[-3.1855043,55.9454174],[-3.1856069,55.9456993],[-3.1854569,55.9459592],[-3.1853069,55.946219],[-3.1855888,55.9461164],[-3.1858707,55.9460138],[-3.1861305,55.9458638],[-3.1863233,55.9456339],[-3.1865162,55.9454041],[-3.186709,55.9451743],[-3.1869018,55.9454041],[-3.1871317,55.945597],[-3.1874271,55.9456491],[-3.1877225,55.9457012],[-3.1880225,55.9457012],[-3.188318,55.9457532],[-3.1885108,55.9459831],[-3.1887406,55.9457902],[-3.1887927,55.9454948],[-3.1890746,55.9455974],[-3.1893344,55.9457474],[-3.1896164,55.94585],[-3.1898762,55.946],[-3.1901762,55.946],[-3.1904762,55.946],[-3.1907762,55.946],[-3.1910762,55.946],[-3.1911788,55.9457181],[-3.1913716,55.9454883],[-3.1915644,55.9452585],[-3.191269,55.9453106],[-3.190969,55.9453106],[-3.1906736,55.9453626],[-3.1903736,55.9453626],[-3.190271,55.9450807],[-3.1901683,55.9447988],[-3.1900183,55.944539],[-3.1899157,55.9442571],[-3.1897657,55.9439973],[-3.1895729,55.9437675],[-3.1894703,55.9434856],[-3.1893677,55.9432037],[-3.1892177,55.9429439],[-3.1889358,55.9430465],[-3.1886403,55.9430986],[-3.1887429,55.9433805],[-3.1888456,55.9436624],[-3.1889482,55.9439443],[-3.1886527,55.9439964],[-3.1883573,55.9440485],[-3.1880975,55.9441985],[-3.1878377,55.9443485]]},"properties":{}},{"type":"Feature","geometry":{"type":"Point","coordinates":[-3.187789,55.944386]},"properties":{"location":"thank.salsa.brain","rgb-string":"#40ff00","marker-symbol":"lighthouse","marker-color":"#40ff00"}},{"type":"Feature","geometry":{"type":"Point","coordinates":[-3.187982,55.943497]},"properties":{"location":"scare.cubs.resort","rgb-string":"#00ff00","marker-symbol":"lighthouse","marker-color":"#00ff00"}},{"type":"Feature","geometry":{"type":"Point","coordinates":[-3.187837,55.943227]},"properties":{"location":"gums.clock.modes","rgb-string":"#80ff00","marker-symbol":"lighthouse","marker-color":"#80ff00"}},{"type":"Feature","geometry":{"type":"Point","coordinates":[-3.186248,55.942796]},"properties":{"location":"under.retire.bump","rgb-string":"#ffc000","marker-symbol":"danger","marker-color":"#ffc000"}},{"type":"Feature","geometry":{"type":"Point","coordinates":[-3.187355,55.943604]},"properties":{"location":"shut.stands.media","rgb-string":"#c0ff00","marker-symbol":"lighthouse","marker-color":"#c0ff00"}},{"type":"Feature","geometry":{"type":"Point","coordinates":[-3.187018,55.943982]},"properties":{"location":"renew.ears.tend","rgb-string":"#c0ff00","marker-symbol":"lighthouse","marker-color":"#c0ff00"}},{"type":"Feature","geometry":{"type":"Point","coordinates":[-3.186007,55.943901]},"properties":{"location":"teams.mild.played","rgb-string":"#000000","marker-symbol":"cross","marker-color":"#000000"}},{"type":"Feature","geometry":{"type":"Point","coordinates":[-3.185525,55.943982]},"properties":{"location":"manliness.poem.cliff","rgb-string":"#ff4000","marker-symbol":"danger","marker-color":"#ff4000"}},{"type":"Feature","geometry":{"type":"Point","coordinates":[-3.184754,55.943012]},"properties":{"location":"courier.assume.bill","rgb-string":"#ff4000","marker-symbol":"danger","marker-color":"#ff4000"}},{"type":"Feature","geometry":{"type":"Point","coordinates":[-3.184658,55.943874]},"properties":{"location":"rider.mile.lime","rgb-string":"#ff4000","marker-symbol":"danger","marker-color":"#ff4000"}},{"type":"Feature","geometry":{"type":"Point","coordinates":[-3.185236,55.944575]},"properties":{"location":"acid.chair.butter","rgb-string":"#ffc000","marker-symbol":"danger","marker-color":"#ffc000"}},{"type":"Feature","geometry":{"type":"Point","coordinates":[-3.185621,55.945761]},"properties":{"location":"shed.desire.muddy","rgb-string":"#ff0000","marker-symbol":"danger","marker-color":"#ff0000"}},{"type":"Feature","geometry":{"type":"Point","coordinates":[-3.185332,55.946138]},"properties":{"location":"prime.rent.silk","rgb-string":"#ff8000","marker-symbol":"danger","marker-color":"#ff8000"}},{"type":"Feature","geometry":{"type":"Point","coordinates":[-3.185814,55.94603]},"properties":{"location":"renew.slows.basket","rgb-string":"#ff4000","marker-symbol":"danger","marker-color":"#ff4000"}},{"type":"Feature","geometry":{"type":"Point","coordinates":[-3.186296,55.945761]},"properties":{"location":"posts.kicked.universally","rgb-string":"#ff8000","marker-symbol":"danger","marker-color":"#ff8000"}},{"type":"Feature","geometry":{"type":"Point","coordinates":[-3.186729,55.945168]},"properties":{"location":"dragon.bottle.crisp","rgb-string":"#ff8000","marker-symbol":"danger","marker-color":"#ff8000"}},{"type":"Feature","geometry":{"type":"Point","coordinates":[-3.186922,55.945437]},"properties":{"location":"spent.spoon.bolt","rgb-string":"#ffc000","marker-symbol":"danger","marker-color":"#ffc000"}},{"type":"Feature","geometry":{"type":"Point","coordinates":[-3.188463,55.945761]},"properties":{"location":"bend.tubes.chops","rgb-string":"#ff4000","marker-symbol":"danger","marker-color":"#ff4000"}},{"type":"Feature","geometry":{"type":"Point","coordinates":[-3.18856,55.946057]},"properties":{"location":"boost.radar.stress","rgb-string":"#ff0000","marker-symbol":"danger","marker-color":"#ff0000"}},{"type":"Feature","geometry":{"type":"Point","coordinates":[-3.188897,55.945707]},"properties":{"location":"stops.else.chats","rgb-string":"#ff8000","marker-symbol":"danger","marker-color":"#ff8000"}},{"type":"Feature","geometry":{"type":"Point","coordinates":[-3.188801,55.945437]},"properties":{"location":"shady.soft.phones","rgb-string":"#ffc000","marker-symbol":"danger","marker-color":"#ffc000"}},{"type":"Feature","geometry":{"type":"Point","coordinates":[-3.189957,55.94603]},"properties":{"location":"love.behind.orchestra","rgb-string":"#ff0000","marker-symbol":"danger","marker-color":"#ff0000"}},{"type":"Feature","geometry":{"type":"Point","coordinates":[-3.191161,55.945976]},"properties":{"location":"simple.rust.audio","rgb-string":"#ff0000","marker-symbol":"danger","marker-color":"#ff0000"}},{"type":"Feature","geometry":{"type":"Point","coordinates":[-3.191257,55.945599]},"properties":{"location":"skins.engage.best","rgb-string":"#ff8000","marker-symbol":"danger","marker-color":"#ff8000"}},{"type":"Feature","geometry":{"type":"Point","coordinates":[-3.191594,55.945195]},"properties":{"location":"hills.feels.tunes","rgb-string":"#ffc000","marker-symbol":"danger","marker-color":"#ffc000"}},{"type":"Feature","geometry":{"type":"Point","coordinates":[-3.190438,55.945383]},"properties":{"location":"jump.crop.fits","rgb-string":"#000000","marker-symbol":"cross","marker-color":"#000000"}},{"type":"Feature","geometry":{"type":"Point","coordinates":[-3.189812,55.94409]},"properties":{"location":"cliff.asleep.wedge","rgb-string":"#40ff00","marker-symbol":"lighthouse","marker-color":"#40ff00"}},{"type":"Feature","geometry":{"type":"Point","coordinates":[-3.189619,55.94382]},"properties":{"location":"burn.spot.across","rgb-string":"#40ff00","marker-symbol":"lighthouse","marker-color":"#40ff00"}},{"type":"Feature","geometry":{"type":"Point","coordinates":[-3.189379,55.943281]},"properties":{"location":"rents.cone.stove","rgb-string":"#40ff00","marker-symbol":"lighthouse","marker-color":"#40ff00"}},{"type":"Feature","geometry":{"type":"Point","coordinates":[-3.189234,55.943012]},"properties":{"location":"region.passes.pencil","rgb-string":"#80ff00","marker-symbol":"lighthouse","marker-color":"#80ff00"}},{"type":"Feature","geometry":{"type":"Point","coordinates":[-3.188608,55.943119]},"properties":{"location":"groups.ideas.script","rgb-string":"#40ff00","marker-symbol":"lighthouse","marker-color":"#40ff00"}},{"type":"Feature","geometry":{"type":"Point","coordinates":[-3.188945,55.943928]},"properties":{"location":"noted.friday.jams","rgb-string":"#40ff00","marker-symbol":"lighthouse","marker-color":"#40ff00"}},{"type":"Feature","geometry":{"type":"Point","coordinates":[-3.188271,55.944063]},"properties":{"location":"rush.crown.link","rgb-string":"#000000","marker-symbol":"cross","marker-color":"#000000"}}]}