{"type":"FeatureCollection","features":[{"type":"Feature","geometry":{"type":"LineString","coordinates":[[-3.1878,55.9444],[-3.1879026,55.9446819],[-3.1880052,55.9449638],[-3.188235,55.9451567],[-3.1884648,55.9453495],[-3.1886947,55.9455423],[-3.1889245,55.9457352],[-3.1892199,55.9456831],[-3.1895199,55.9456831],[-3.1898199,55.9456831],[-3.1901199,55.9456831],[-3.1904199,55.9456831],[-3.1907154,55.945631],[-3.1910154,55.945631],[-3.1913108,55.9455789],[-3.1915406,55.9457717],[-3.1918004,55.9459217],[-3.1916978,55.9456398],[-3.1916457,55.9453444],[-3.1914529,55.9451146],[-3.19126,55.9448847],[-3.1910302,55.9446919],[-3.1910823,55.9443965],[-3.1910823,55.9440965],[-3.1911344,55.943801],[-3.1911344,55.943501],[-3.1910823,55.9437965],[-3.1908004,55.9438991],[-3.190505,55.9439512],[-3.190355,55.9436914],[-3.190205,55.9434315],[-3.190055,55.9431717],[-3.189905,55.9429119],[-3.189755,55.9426521],[-3.1897029,55.9429476],[-3.1894074,55.9429997],[-3.1894595,55.9432951],[-3.1895116,55.9435905],[-3.1892518,55.9437405],[-3.188992,55.9438905],[-3.188842,55.9436307],[-3.1885601,55.9435281],[-3.1882782,55.9434255],[-3.1879963,55.9433229],[-3.1877144,55.9432203],[-3.1874546,55.9430703],[-3.1871727,55.9429677],[-3.1868727,55.9429677],[-3.1865727,55.9429677],[-3.1862727,55.9429677],[-3.1859727,55.9429677],[-3.1856727,55.9429677],[-3.1853727,55.9429677],[-3.1850727,55.9429677],[-3.1847772,55.9430198],[-3.1848293,55.9433152],[-3.1847772,55.9436107],[-3.1847251,55.9439061],[-3.184673,55.9442016],[-3.1845704,55.9444835],[-3.1845183,55.9447789],[-3.1848138,55.9447268],[-3.1850066,55.9449566],[-3.1851994,55.9451865],[-3.1853923,55.9454163],[-3.1855423,55.9456761],[-3.1858423,55.9456761],[-3.1861423,55.9456761],[-3.1864423,55.9456761],[-3.1867423,55.9456761],[-3.1870242,55.9457787],[-3.1873061,55.9458813],[-3.187254,55.9455858],[-3.1869586,55.9455337],[-3.1868086,55.9452739],[-3.1866157,55.9450441],[-3.1864657,55.9447843],[-3.1863157,55.9445245],[-3.1860859,55.9443317],[-3.1860338,55.9440362],[-3.1863157,55.9439336],[-3.1865976,55.943831],[-3.1868795,55.9437284],[-3.187175,55.9436763],[-3.1872271,55.9439718],[-3.1872792,55.9442672],[-3.1873313,55.9445626],[-3.1870313,55.9445626],[-3.1867313,55.9445626],[-3.1870313,55.9445626],[-3.1873267,55.9445106],[-3.1876221,55.9444585]]},"properties":{}},{"type":"Feature","geometry":{"type":"Point","coordinates":[-3.18803,55.944979]},"properties":{"location":"agents.mile.crib","rgb-string":"#80ff00","marker-symbol":"lighthouse","marker-color":"#80ff00"}},{"type":"Feature","geometry":{"type":"Point","coordinates":[-3.188897,55.945707]},"properties":{"location":"stops.else.chats","rgb-string":"#ff8000","marker-symbol":"danger","marker-color":"#ff8000"}},{"type":"Feature","geometry":{"type":"Point","coordinates":[-3.18933,55.945653]},"properties":{"location":"museum.spicy.horns","rgb-string":"#ff0000","marker-symbol":"danger","marker-color":"#ff0000"}},{"type":"Feature","geometry":{"type":"Point","coordinates":[-3.191257,55.945599]},"properties":{"location":"skins.engage.best","rgb-string":"#ffc000","marker-symbol":"danger","marker-color":"#ffc000"}},{"type":"Feature","geometry":{"type":"Point","coordinates":[-3.191883,55.946003]},"properties":{"location":"stone.undulation.poems","rgb-string":"#ffc000","marker-symbol":"danger","marker-color":"#ffc000"}},{"type":"Feature","geometry":{"type":"Point","coordinates":[-3.191594,55.945195]},"properties":{"location":"hills.feels.tunes","rgb-string":"#ff4000","marker-symbol":"danger","marker-color":"#ff4000"}},{"type":"Feature","geometry":{"type":"Point","coordinates":[-3.191065,55.944709]},"properties":{"location":"estate.gave.votes","rgb-string":"#80ff00","marker-symbol":"lighthouse","marker-color":"#80ff00"}},{"type":"Feature","geometry":{"type":"Point","coordinates":[-3.191161,55.943362]},"properties":{"location":"meal.feed.large","rgb-string":"#00ff00","marker-symbol":"lighthouse","marker-color":"#00ff00"}},{"type":"Feature","geometry":{"type":"Point","coordinates":[-3.191113,55.943631]},"properties":{"location":"loaf.cheer.slave","rgb-string":"#00ff00","marker-symbol":"lighthouse","marker-color":"#00ff00"}},{"type":"Feature","geometry":{"type":"Point","coordinates":[-3.190438,55.943982]},"properties":{"location":"pump.wheels.hulk","rgb-string":"#40ff00","marker-symbol":"lighthouse","marker-color":"#40ff00"}},{"type":"Feature","geometry":{"type":"Point","coordinates":[-3.190053,55.943173]},"properties":{"location":"shows.fries.lamp","rgb-string":"#40ff00","marker-symbol":"lighthouse","marker-color":"#40ff00"}},{"type":"Feature","geometry":{"type":"Point","coordinates":[-3.189908,55.942904]},"properties":{"location":"second.launch.miles","rgb-string":"#00ff00","marker-symbol":"lighthouse","marker-color":"#00ff00"}},{"type":"Feature","geometry":{"type":"Point","coordinates":[-3.189764,55.942661]},"properties":{"location":"hooked.shine.third","rgb-string":"#40ff00","marker-symbol":"lighthouse","marker-color":"#40ff00"}},{"type":"Feature","geometry":{"type":"Point","coordinates":[-3.189234,55.943012]},"properties":{"location":"region.passes.pencil","rgb-string":"#40ff00","marker-symbol":"lighthouse","marker-color":"#40ff00"}},{"type":"Feature","geometry":{"type":"Point","coordinates":[-3.189523,55.943551]},"properties":{"location":"cars.attend.hotels","rgb-string":"#40ff00","marker-symbol":"lighthouse","marker-color":"#40ff00"}},{"type":"Feature","geometry":{"type":"Point","coordinates":[-3.188945,55.943928]},"properties":{"location":"noted.friday.jams","rgb-string":"#00ff00","marker-symbol":"lighthouse","marker-color":"#00ff00"}},{"type":"Feature","geometry":{"type":"Point","coordinates":[-3.188849,55.943658]},"properties":{"location":"labels.hotels.alert","rgb-string":"#00ff00","marker-symbol":"lighthouse","marker-color":"#00ff00"}},{"type":"Feature","geometry":{"type":"Point","coordinates":[-3.187837,55.943227]},"properties":{"location":"gums.clock.modes","rgb-string":"#000000","marker-symbol":"cross","marker-color":"#000000"}},{"type":"Feature","geometry":{"type":"Point","coordinates":[-3.187018,55.942877]},"properties":{"location":"valve.elaborate.fortunate","rgb-string":"#ff4000","marker-symbol":"danger","marker-color":"#ff4000"}},{"type":"Feature","geometry":{"type":"Point","coordinates":[-3.184754,55.943012]},"properties":{"location":"courier.assume.bill","rgb-string":"#c0ff00","marker-symbol":"lighthouse","marker-color":"#c0ff00"}},{"type":"Feature","geometry":{"type":"Point","coordinates":[-3.184803,55.943173]},"properties":{"location":"brings.remedy.latter","rgb-string":"#ff4000","marker-symbol":"danger","marker-color":"#ff4000"}},{"type":"Feature","geometry":{"type":"Point","coordinates":[-3.184465,55.944952]},"properties":{"location":"sports.topic.clocks","rgb-string":"#ff4000","marker-symbol":"danger","marker-color":"#ff4000"}},{"type":"Feature","geometry":{"type":"Point","coordinates":[-3.184899,55.944736]},"properties":{"location":"slide.leads.stores","rgb-string":"#ff8000","marker-symbol":"danger","marker-color":"#ff8000"}},{"type":"Feature","geometry":{"type":"Point","coordinates":[-3.185621,55.945761]},"properties":{"location":"shed.desire.muddy","rgb-string":"#ffc000","marker-symbol":"danger","marker-color":"#ffc000"}},{"type":"Feature","geometry":{"type":"Point","coordinates":[-3.186729,55.945653]},"properties":{"location":"hidden.handle.softly","rgb-string":"#ff0000","marker-symbol":"danger","marker-color":"#ff0000"}},{"type":"Feature","geometry":{"type":"Point","coordinates":[-3.187404,55.945949]},"properties":{"location":"slips.mass.baking","rgb-string":"#ffc000","marker-symbol":"danger","marker-color":"#ffc000"}},{"type":"Feature","geometry":{"type":"Point","coordinates":[-3.187259,55.945653]},"properties":{"location":"diner.leaves.mutual","rgb-string":"#ff8000","marker-symbol":"danger","marker-color":"#ff8000"}},{"type":"Feature","geometry":{"type":"Point","coordinates":[-3.186537,55.944925]},"properties":{"location":"laws.merit.bleak","rgb-string":"#000000","marker-symbol":"cross","marker-color":"#000000"}},{"type":"Feature","geometry":{"type":"Point","coordinates":[-3.186392,55.944656]},"properties":{"location":"rated.fired.crowds","rgb-string":"#ff4000","marker-symbol":"danger","marker-color":"#ff4000"}},{"type":"Feature","geometry":{"type":"Point","coordinates":[-3.186007,55.943901]},"properties":{"location":"teams.mild.played","rgb-string":"#ffc000","marker-symbol":"danger","marker-color":"#ffc000"}},{"type":"Feature","geometry":{"type":"Point","coordinates":[-3.187355,55.943604]},"properties":{"location":"shut.stands.media","rgb-string":"#c0ff00","marker-symbol":"lighthouse","marker-color":"#c0ff00"}},{"type":"Feature","geometry":{"type":"Point","coordinates":[-3.187307,55.944494]},"properties":{"location":"only.fairly.rift","rgb-string":"#ffc000","marker-symbol":"danger","marker-color":"#ffc000"}},{"type":"Feature","geometry":{"type":"Point","coordinates":[-3.186777,55.944575]},"properties":{"location":"artist.gets.react","rgb-string":"#ffc000","marker-symbol":"danger","marker-color":"#ffc000"}}]}