{"type":"FeatureCollection","features":[{"type":"Feature","geometry":{"type":"LineString","coordinates":[[-3.1878,55.9444],[-3.18765,55.9441402],[-3.1875,55.9438804],[-3.18735,55.9436206],[-3.1874526,55.9433387],[-3.1875552,55.9430568],[-3.1877052,55.942797],[-3.1874098,55.942849],[-3.1871098,55.942849],[-3.1869598,55.9431089],[-3.1868572,55.9433908],[-3.1867072,55.9436506],[-3.1866046,55.9439325],[-3.1864117,55.9437027],[-3.1861819,55.9435098],[-3.1859891,55.94328],[-3.1857593,55.9430872],[-3.1857072,55.9427917],[-3.1854117,55.9428438],[-3.1851163,55.9428959],[-3.1848344,55.9429985],[-3.1848865,55.943294],[-3.1850793,55.9435238],[-3.1852721,55.9437536],[-3.185502,55.9439464],[-3.1856046,55.9442283],[-3.1853448,55.9443783],[-3.1850849,55.9445283],[-3.1848251,55.9446783],[-3.1845953,55.9448712],[-3.1845432,55.9451666],[-3.1847361,55.9453964],[-3.1848861,55.9456562],[-3.1848861,55.9459562],[-3.1851815,55.9459042],[-3.1854769,55.9458521],[-3.1857724,55.9458],[-3.1860678,55.9457479],[-3.1863678,55.9457479],[-3.1866633,55.9456958],[-3.1869633,55.9456958],[-3.1872231,55.9458458],[-3.1875185,55.9457937],[-3.187814,55.9457416],[-3.1881094,55.9456895],[-3.1884049,55.9456374],[-3.1887003,55.9455853],[-3.1890003,55.9455853],[-3.1892957,55.9455332],[-3.1895957,55.9455332],[-3.1898555,55.9456832],[-3.1901375,55.9455806],[-3.1904194,55.945478],[-3.1907013,55.9453754],[-3.1909832,55.9452728],[-3.191176,55.945043],[-3.1911239,55.9447475],[-3.1910718,55.9444521],[-3.1910718,55.9441521],[-3.1911239,55.9438566],[-3.1911239,55.9435566],[-3.1911239,55.9432566],[-3.1911239,55.9429566],[-3.1913537,55.9427638],[-3.1910537,55.9427638],[-3.1907583,55.9428159],[-3.1904628,55.942868],[-3.1901628,55.942868],[-3.1898628,55.942868],[-3.1900128,55.9431278],[-3.1901628,55.9433876],[-3.1902655,55.9436695],[-3.1904155,55.9439293],[-3.19012,55.9438772],[-3.1898246,55.9438251],[-3.1895246,55.9438251],[-3.1894725,55.9435297],[-3.1895751,55.9432478],[-3.1893153,55.9430978],[-3.1890555,55.9432478],[-3.1887957,55.9433978],[-3.1885358,55.9435478],[-3.188276,55.9436978],[-3.188276,55.9439978],[-3.1883786,55.9442797],[-3.1881488,55.9444725],[-3.187919,55.9446654],[-3.1878164,55.9443835],[-3.187521,55.9444356],[-3.187221,55.9444356],[-3.187521,55.9444356]]},"properties":{}},{"type":"Feature","geometry":{"type":"Point","coordinates":[-3.1875,55.943874]},"properties":{"location":"begins.spider.drips","rgb-string":"#c0ff00","marker-symbol":"lighthouse","marker-color":"#c0ff00"}},{"type":"Feature","geometry":{"type":"Point","coordinates":[-3.187355,55.943604]},"properties":{"location":"shut.stands.media","rgb-string":"#000000","marker-symbol":"cross","marker-color":"#000000"}},{"type":"Feature","geometry":{"type":"Point","coordinates":[-3.187693,55.942769]},"properties":{"location":"panic.squad.danger","rgb-string":"#ffc000","marker-symbol":"danger","marker-color":"#ffc000"}},{"type":"Feature","geometry":{"type":"Point","coordinates":[-3.187018,55.942877]},"properties":{"location":"valve.elaborate.fortunate","rgb-string":"#ff8000","marker-symbol":"danger","marker-color":"#ff8000"}},{"type":"Feature","geometry":{"type":"Point","coordinates":[-3.186537,55.944063]},"properties":{"location":"lime.learns.front","rgb-string":"#ffc000","marker-symbol":"danger","marker-color":"#ffc000"}},{"type":"Feature","geometry":{"type":"Point","coordinates":[-3.185573,55.942877]},"properties":{"location":"dent.shins.cycle","rgb-string":"#ff8000","marker-symbol":"danger","marker-color":"#ff8000"}},{"type":"Feature","geometry":{"type":"Point","coordinates":[-3.184754,55.943012]},"properties":{"location":"courier.assume.bill","rgb-string":"#c0ff00","marker-symbol":"lighthouse","marker-color":"#c0ff00"}},{"type":"Feature","geometry":{"type":"Point","coordinates":[-3.184947,55.943443]},"properties":{"location":"sentences.sings.modern","rgb-string":"#ff4000","marker-symbol":"danger","marker-color":"#ff4000"}},{"type":"Feature","geometry":{"type":"Point","coordinates":[-3.185525,55.943982]},"properties":{"location":"manliness.poem.cliff","rgb-string":"#000000","marker-symbol":"cross","marker-color":"#000000"}},{"type":"Feature","geometry":{"type":"Point","coordinates":[-3.18567,55.944359]},"properties":{"location":"atoms.vanish.foods","rgb-string":"#ff0000","marker-symbol":"danger","marker-color":"#ff0000"}},{"type":"Feature","geometry":{"type":"Point","coordinates":[-3.184465,55.944952]},"properties":{"location":"sports.topic.clocks","rgb-string":"#ffc000","marker-symbol":"danger","marker-color":"#ffc000"}},{"type":"Feature","geometry":{"type":"Point","coordinates":[-3.184513,55.945302]},"properties":{"location":"settle.title.united","rgb-string":"#000000","marker-symbol":"cross","marker-color":"#000000"}},{"type":"Feature","geometry":{"type":"Point","coordinates":[-3.185043,55.945868]},"properties":{"location":"rider.aura.bulb","rgb-string":"#ffc000","marker-symbol":"danger","marker-color":"#ffc000"}},{"type":"Feature","geometry":{"type":"Point","coordinates":[-3.187259,55.945653]},"properties":{"location":"diner.leaves.mutual","rgb-string":"#ff8000","marker-symbol":"danger","marker-color":"#ff8000"}},{"type":"Feature","geometry":{"type":"Point","coordinates":[-3.18986,55.945491]},"properties":{"location":"turkey.limit.ramp","rgb-string":"#ffc000","marker-symbol":"danger","marker-color":"#ffc000"}},{"type":"Feature","geometry":{"type":"Point","coordinates":[-3.191016,55.945248]},"properties":{"location":"maple.limit.hotels","rgb-string":"#ff4000","marker-symbol":"danger","marker-color":"#ff4000"}},{"type":"Feature","geometry":{"type":"Point","coordinates":[-3.191016,55.944979]},"properties":{"location":"shapes.sheep.nature","rgb-string":"#c0ff00","marker-symbol":"lighthouse","marker-color":"#c0ff00"}},{"type":"Feature","geometry":{"type":"Point","coordinates":[-3.191065,55.94444]},"properties":{"location":"paying.crowd.weep","rgb-string":"#40ff00","marker-symbol":"lighthouse","marker-color":"#40ff00"}},{"type":"Feature","geometry":{"type":"Point","coordinates":[-3.191161,55.943362]},"properties":{"location":"meal.feed.large","rgb-string":"#00ff00","marker-symbol":"lighthouse","marker-color":"#00ff00"}},{"type":"Feature","geometry":{"type":"Point","coordinates":[-3.191161,55.942742]},"properties":{"location":"along.spill.limp","rgb-string":"#000000","marker-symbol":"cross","marker-color":"#000000"}},{"type":"Feature","geometry":{"type":"Point","coordinates":[-3.190583,55.942823]},"properties":{"location":"tonic.bliss.cove","rgb-string":"#40ff00","marker-symbol":"lighthouse","marker-color":"#40ff00"}},{"type":"Feature","geometry":{"type":"Point","coordinates":[-3.189908,55.942904]},"properties":{"location":"second.launch.miles","rgb-string":"#40ff00","marker-symbol":"lighthouse","marker-color":"#40ff00"}},{"type":"Feature","geometry":{"type":"Point","coordinates":[-3.190197,55.943443]},"properties":{"location":"arts.dish.scarcely","rgb-string":"#40ff00","marker-symbol":"lighthouse","marker-color":"#40ff00"}},{"type":"Feature","geometry":{"type":"Point","coordinates":[-3.190438,55.943982]},"properties":{"location":"pump.wheels.hulk","rgb-string":"#40ff00","marker-symbol":"lighthouse","marker-color":"#40ff00"}},{"type":"Feature","geometry":{"type":"Point","coordinates":[-3.189619,55.94382]},"properties":{"location":"burn.spot.across","rgb-string":"#40ff00","marker-symbol":"lighthouse","marker-color":"#40ff00"}},{"type":"Feature","geometry":{"type":"Point","coordinates":[-3.189379,55.943281]},"properties":{"location":"rents.cone.stove","rgb-string":"#000000","marker-symbol":"cross","marker-color":"#000000"}},{"type":"Feature","geometry":{"type":"Point","coordinates":[-3.189234,55.943012]},"properties":{"location":"region.passes.pencil","rgb-string":"#80ff00","marker-symbol":"lighthouse","marker-color":"#80ff00"}},{"type":"Feature","geometry":{"type":"Point","coordinates":[-3.188126,55.943793]},"properties":{"location":"cubs.trucks.help","rgb-string":"#00ff00","marker-symbol":"lighthouse","marker-color":"#00ff00"}},{"type":"Feature","geometry":{"type":"Point","coordinates":[-3.188271,55.944063]},"properties":{"location":"rush.crown.link","rgb-string":"#40ff00","marker-symbol":"lighthouse","marker-color":"#40ff00"}},{"type":"Feature","geometry":{"type":"Point","coordinates":[-3.188415,55.944305]},"properties":{"location":"trades.rare.cable","rgb-string":"#000000","marker-symbol":"cross","marker-color":"#000000"}},{"type":"Feature","geometry":{"type":"Point","coordinates":[-3.187885,55.944709]},"properties":{"location":"hurt.green.filer","rgb-string":"#80ff00","marker-symbol":"lighthouse","marker-color":"#80ff00"}},{"type":"Feature","geometry":{"type":"Point","coordinates":[-3.187789,55.944386]},"properties":{"location":"thank.salsa.brain","rgb-string":"#40ff00","marker-symbol":"lighthouse","marker-color":"#40ff00"}},{"type":"Feature","geometry":{"type":"Point","coordinates":[-3.187307,55.944494]},"properties":{"location":"only.fairly.rift","rgb-string":"#ffc000","marker-symbol":"danger","marker-color":"#ffc000"}}]}