{"type":"FeatureCollection","features":[{"type":"Feature","geometry":{"type":"LineString","coordinates":[[-3.1878,55.9444],[-3.1879026,55.9446819],[-3.1880526,55.9444221],[-3.1882026,55.9441623],[-3.1883052,55.9438804],[-3.1884078,55.9435985],[-3.1885104,55.9433166],[-3.1887702,55.9431666],[-3.1885404,55.9433594],[-3.1888002,55.9435094],[-3.18906,55.9436594],[-3.1893198,55.9438094],[-3.1895796,55.9439594],[-3.1896823,55.9442413],[-3.1899642,55.9441387],[-3.1902461,55.9440361],[-3.190194,55.9437407],[-3.1901419,55.9434452],[-3.1902445,55.9431633],[-3.1904373,55.9429335],[-3.1907328,55.9429856],[-3.1910282,55.9430377],[-3.1910803,55.9433331],[-3.1910803,55.9436331],[-3.1909303,55.9438929],[-3.1910803,55.9441527],[-3.1908875,55.9443826],[-3.1911473,55.9445326],[-3.1914071,55.9446826],[-3.1916669,55.9448326],[-3.1919267,55.9449826],[-3.1922086,55.9450852],[-3.1919132,55.9451373],[-3.1916177,55.9451894],[-3.1913223,55.9452414],[-3.1910223,55.9452414],[-3.1910744,55.9455369],[-3.1911265,55.9458323],[-3.1908667,55.9456823],[-3.1906069,55.9455323],[-3.1903069,55.9455323],[-3.1900114,55.9455844],[-3.189716,55.9456365],[-3.189416,55.9456365],[-3.1891205,55.9456886],[-3.1888251,55.9457407],[-3.1885251,55.9457407],[-3.1883751,55.9454809],[-3.1882251,55.9452211],[-3.1880322,55.9449913],[-3.1880322,55.9452913],[-3.1881822,55.9455511],[-3.1878868,55.9456032],[-3.1875868,55.9456032],[-3.1872914,55.9456553],[-3.1870095,55.9455527],[-3.1867095,55.9455527],[-3.1867095,55.9452527],[-3.1864496,55.9454027],[-3.1861677,55.9455053],[-3.1859079,55.9456553],[-3.185626,55.9457579],[-3.1853441,55.9456553],[-3.1850622,55.9455527],[-3.1847803,55.9454501],[-3.1845205,55.9453001],[-3.1845726,55.9450046],[-3.1846247,55.9447092],[-3.1846247,55.9444092],[-3.1846768,55.9441137],[-3.1846768,55.9438137],[-3.1847289,55.9435183],[-3.1847289,55.9432183],[-3.1849217,55.9429885],[-3.1852171,55.9429364],[-3.1855126,55.9428843],[-3.185808,55.9428322],[-3.186108,55.9428322],[-3.185958,55.943092],[-3.185808,55.9433518],[-3.1857054,55.9436337],[-3.1855554,55.9438935],[-3.1856075,55.944189],[-3.1858894,55.9442916],[-3.1861713,55.9443942],[-3.1864012,55.944587],[-3.1866966,55.9446391],[-3.186992,55.944587],[-3.1872739,55.9444844],[-3.1875694,55.9444323]]},"properties":{}},{"type":"Feature","geometry":{"type":"Point","coordinates":[-3.187885,55.944709]},"properties":{"location":"hurt.green.filer","rgb-string":"#80ff00","marker-symbol":"lighthouse","marker-color":"#80ff00"}},{"type":"Feature","geometry":{"type":"Point","coordinates":[-3.188271,55.944063]},"properties":{"location":"rush.crown.link","rgb-string":"#40ff00","marker-symbol":"lighthouse","marker-color":"#40ff00"}},{"type":"Feature","geometry":{"type":"Point","coordinates":[-3.188608,55.943119]},"properties":{"location":"groups.ideas.script","rgb-string":"#40ff00","marker-symbol":"lighthouse","marker-color":"#40ff00"}},{"type":"Feature","geometry":{"type":"Point","coordinates":[-3.188704,55.943389]},"properties":{"location":"system.speak.guard","rgb-string":"#00ff00","marker-symbol":"lighthouse","marker-color":"#00ff00"}},{"type":"Feature","geometry":{"type":"Point","coordinates":[-3.189812,55.94409]},"properties":{"location":"cliff.asleep.wedge","rgb-string":"#00ff00","marker-symbol":"lighthouse","marker-color":"#00ff00"}},{"type":"Feature","geometry":{"type":"Point","coordinates":[-3.190438,55.943982]},"properties":{"location":"pump.wheels.hulk","rgb-string":"#40ff00","marker-symbol":"lighthouse","marker-color":"#40ff00"}},{"type":"Feature","geometry":{"type":"Point","coordinates":[-3.190053,55.943173]},"properties":{"location":"shows.fries.lamp","rgb-string":"#40ff00","marker-symbol":"lighthouse","marker-color":"#40ff00"}},{"type":"Feature","geometry":{"type":"Point","coordinates":[-3.190583,55.942823]},"properties":{"location":"tonic.bliss.cove","rgb-string":"#40ff00","marker-symbol":"lighthouse","marker-color":"#40ff00"}},{"type":"Feature","geometry":{"type":"Point","coordinates":[-3.191161,55.943065]},"properties":{"location":"else.urban.museum","rgb-string":"#00ff00","marker-symbol":"lighthouse","marker-color":"#00ff00"}},{"type":"Feature","geometry":{"type":"Point","coordinates":[-3.191113,55.943901]},"properties":{"location":"spicy.bunch.shady","rgb-string":"#000000","marker-symbol":"cross","marker-color":"#000000"}},{"type":"Feature","geometry":{"type":"Point","coordinates":[-3.191113,55.94417]},"properties":{"location":"hills.giant.crate","rgb-string":"#40ff00","marker-symbol":"lighthouse","marker-color":"#40ff00"}},{"type":"Feature","geometry":{"type":"Point","coordinates":[-3.191065,55.94444]},"properties":{"location":"paying.crowd.weep","rgb-string":"#80ff00","marker-symbol":"lighthouse","marker-color":"#80ff00"}},{"type":"Feature","geometry":{"type":"Point","coordinates":[-3.192221,55.945114]},"properties":{"location":"useful.hike.trades","rgb-string":"#c0ff00","marker-symbol":"lighthouse","marker-color":"#c0ff00"}},{"type":"Feature","geometry":{"type":"Point","coordinates":[-3.191594,55.945195]},"properties":{"location":"hills.feels.tunes","rgb-string":"#ff4000","marker-symbol":"danger","marker-color":"#ff4000"}},{"type":"Feature","geometry":{"type":"Point","coordinates":[-3.191016,55.945248]},"properties":{"location":"maple.limit.hotels","rgb-string":"#ffc000","marker-symbol":"danger","marker-color":"#ffc000"}},{"type":"Feature","geometry":{"type":"Point","coordinates":[-3.191161,55.945976]},"properties":{"location":"simple.rust.audio","rgb-string":"#ff4000","marker-symbol":"danger","marker-color":"#ff4000"}},{"type":"Feature","geometry":{"type":"Point","coordinates":[-3.190438,55.945383]},"properties":{"location":"jump.crop.fits","rgb-string":"#ffc000","marker-symbol":"danger","marker-color":"#ffc000"}},{"type":"Feature","geometry":{"type":"Point","coordinates":[-3.18933,55.945653]},"properties":{"location":"museum.spicy.horns","rgb-string":"#ff8000","marker-symbol":"danger","marker-color":"#ff8000"}},{"type":"Feature","geometry":{"type":"Point","coordinates":[-3.188463,55.945761]},"properties":{"location":"bend.tubes.chops","rgb-string":"#000000","marker-symbol":"cross","marker-color":"#000000"}},{"type":"Feature","geometry":{"type":"Point","coordinates":[-3.18803,55.944979]},"properties":{"location":"agents.mile.crib","rgb-string":"#80ff00","marker-symbol":"lighthouse","marker-color":"#80ff00"}},{"type":"Feature","geometry":{"type":"Point","coordinates":[-3.187259,55.945653]},"properties":{"location":"diner.leaves.mutual","rgb-string":"#ff4000","marker-symbol":"danger","marker-color":"#ff4000"}},{"type":"Feature","geometry":{"type":"Point","coordinates":[-3.186922,55.945437]},"properties":{"location":"spent.spoon.bolt","rgb-string":"#ff0000","marker-symbol":"danger","marker-color":"#ff0000"}},{"type":"Feature","geometry":{"type":"Point","coordinates":[-3.186729,55.945653]},"properties":{"location":"hidden.handle.softly","rgb-string":"#ff4000","marker-symbol":"danger","marker-color":"#ff4000"}},{"type":"Feature","geometry":{"type":"Point","coordinates":[-3.186729,55.945168]},"properties":{"location":"dragon.bottle.crisp","rgb-string":"#ffc000","marker-symbol":"danger","marker-color":"#ffc000"}},{"type":"Feature","geometry":{"type":"Point","coordinates":[-3.185621,55.945761]},"properties":{"location":"shed.desire.muddy","rgb-string":"#ffc000","marker-symbol":"danger","marker-color":"#ffc000"}},{"type":"Feature","geometry":{"type":"Point","coordinates":[-3.184513,55.945302]},"properties":{"location":"settle.title.united","rgb-string":"#ff0000","marker-symbol":"danger","marker-color":"#ff0000"}},{"type":"Feature","geometry":{"type":"Point","coordinates":[-3.184754,55.943012]},"properties":{"location":"courier.assume.bill","rgb-string":"#ff8000","marker-symbol":"danger","marker-color":"#ff8000"}},{"type":"Feature","geometry":{"type":"Point","coordinates":[-3.185573,55.942877]},"properties":{"location":"dent.shins.cycle","rgb-string":"#ffc000","marker-symbol":"danger","marker-color":"#ffc000"}},{"type":"Feature","geometry":{"type":"Point","coordinates":[-3.186248,55.942796]},"properties":{"location":"under.retire.bump","rgb-string":"#ff8000","marker-symbol":"danger","marker-color":"#ff8000"}},{"type":"Feature","geometry":{"type":"Point","coordinates":[-3.185525,55.943982]},"properties":{"location":"manliness.poem.cliff","rgb-string":"#ffc000","marker-symbol":"danger","marker-color":"#ffc000"}},{"type":"Feature","geometry":{"type":"Point","coordinates":[-3.18567,55.944359]},"properties":{"location":"atoms.vanish.foods","rgb-string":"#ff8000","marker-symbol":"danger","marker-color":"#ff8000"}},{"type":"Feature","geometry":{"type":"Point","coordinates":[-3.186777,55.944575]},"properties":{"location":"artist.gets.react","rgb-string":"#ff8000","marker-symbol":"danger","marker-color":"#ff8000"}},{"type":"Feature","geometry":{"type":"Point","coordinates":[-3.187307,55.944494]},"properties":{"location":"only.fairly.rift","rgb-string":"#ff8000","marker-symbol":"danger","marker-color":"#ff8000"}}]}