{"type":"FeatureCollection","features":[{"type":"Feature","geometry":{"type":"LineString","coordinates":[[-3.1878,55.9444],[-3.1875181,55.9445026],[-3.1872362,55.9446052],[-3.1869407,55.9446573],[-3.1866809,55.9448073],[-3.1864211,55.9449573],[-3.186369,55.9452527],[-3.1863169,55.9455482],[-3.1862648,55.9458436],[-3.1859694,55.9457915],[-3.185674,55.9457394],[-3.1853921,55.9456368],[-3.1851101,55.9455342],[-3.1848282,55.9454316],[-3.1845463,55.945329],[-3.1847761,55.9451362],[-3.185006,55.9449433],[-3.1852358,55.9447505],[-3.1854656,55.9445577],[-3.1856954,55.9443648],[-3.1859773,55.9442622],[-3.1859773,55.9439622],[-3.1856954,55.9438596],[-3.1854135,55.943757],[-3.185118,55.9437049],[-3.184968,55.9434451],[-3.184818,55.9431853],[-3.1851,55.9430827],[-3.1853819,55.9429801],[-3.1856417,55.9428301],[-3.1855896,55.9431255],[-3.185885,55.9430734],[-3.1861805,55.9430214],[-3.1864624,55.9429187],[-3.1867443,55.9428161],[-3.1870041,55.9426661],[-3.1870041,55.9429661],[-3.1872995,55.9430182],[-3.1875995,55.9430182],[-3.187895,55.9430703],[-3.188195,55.9430703],[-3.1884904,55.9431224],[-3.1887859,55.9430703],[-3.1890813,55.9430182],[-3.1892741,55.943248],[-3.189467,55.9434779],[-3.189767,55.9434779],[-3.190067,55.9434779],[-3.1902598,55.9437077],[-3.1904098,55.9439675],[-3.1906396,55.9437746],[-3.1908694,55.9435818],[-3.1910992,55.943389],[-3.1910992,55.943689],[-3.1910992,55.943989],[-3.1910992,55.944289],[-3.1912492,55.9445488],[-3.1913992,55.9448086],[-3.1915492,55.9450684],[-3.1918492,55.9450684],[-3.1921447,55.9451205],[-3.1920421,55.9454024],[-3.19199,55.9456978],[-3.1918874,55.9459797],[-3.1916276,55.9458297],[-3.1913678,55.9456797],[-3.1911749,55.9454499],[-3.1909821,55.9452201],[-3.1907002,55.9453227],[-3.1904047,55.9453748],[-3.1902547,55.9456346],[-3.1900619,55.9458644],[-3.1897665,55.9459165],[-3.189471,55.9459686],[-3.1891756,55.9460207],[-3.1888756,55.9460207],[-3.1885801,55.9460728],[-3.1882847,55.9460207],[-3.1879847,55.9460207],[-3.1876892,55.9459686],[-3.1873892,55.9459686],[-3.1876847,55.9459165],[-3.1879801,55.9458644],[-3.1882756,55.9458123],[-3.188571,55.9457603],[-3.1888665,55.9457082],[-3.1890165,55.9454484],[-3.1891665,55.9451885],[-3.1893165,55.9449287],[-3.1894665,55.9446689],[-3.1896165,55.9444091],[-3.1897665,55.9441493],[-3.1894846,55.9440467],[-3.1892026,55.9439441],[-3.1889207,55.9438415],[-3.1886388,55.9437389],[-3.1883569,55.9436363],[-3.188075,55.9435337],[-3.1879724,55.9438156],[-3.1878698,55.9440975],[-3.1878177,55.9443929]]},"properties":{}},{"type":"Feature","geometry":{"type":"Point","coordinates":[-3.186537,55.944925]},"properties":{"location":"laws.merit.bleak","rgb-string":"#40ff00","marker-symbol":"lighthouse","marker-color":"#40ff00"}},{"type":"Feature","geometry":{"type":"Point","coordinates":[-3.186296,55.945761]},"properties":{"location":"posts.kicked.universally","rgb-string":"#000000","marker-symbol":"cross","marker-color":"#000000"}},{"type":"Feature","geometry":{"type":"Point","coordinates":[-3.185621,55.945761]},"properties":{"location":"shed.desire.muddy","rgb-string":"#ff0000","marker-symbol":"danger","marker-color":"#ff0000"}},{"type":"Feature","geometry":{"type":"Point","coordinates":[-3.184513,55.945302]},"properties":{"location":"settle.title.united","rgb-string":"#ff4000","marker-symbol":"danger","marker-color":"#ff4000"}},{"type":"Feature","geometry":{"type":"Point","coordinates":[-3.18567,55.944359]},"properties":{"location":"atoms.vanish.foods","rgb-string":"#ffc000","marker-symbol":"danger","marker-color":"#ffc000"}},{"type":"Feature","geometry":{"type":"Point","coordinates":[-3.186103,55.944251]},"properties":{"location":"organs.shape.fantastic","rgb-string":"#ffc000","marker-symbol":"danger","marker-color":"#ffc000"}},{"type":"Feature","geometry":{"type":"Point","coordinates":[-3.186007,55.943901]},"properties":{"location":"teams.mild.played","rgb-string":"#ffc000","marker-symbol":"danger","marker-color":"#ffc000"}},{"type":"Feature","geometry":{"type":"Point","coordinates":[-3.18514,55.943685]},"properties":{"location":"hello.love.keys","rgb-string":"#ffc000","marker-symbol":"danger","marker-color":"#ffc000"}},{"type":"Feature","geometry":{"type":"Point","coordinates":[-3.184754,55.943012]},"properties":{"location":"courier.assume.bill","rgb-string":"#ff4000","marker-symbol":"danger","marker-color":"#ff4000"}},{"type":"Feature","geometry":{"type":"Point","coordinates":[-3.185573,55.942877]},"properties":{"location":"dent.shins.cycle","rgb-string":"#ff0000","marker-symbol":"danger","marker-color":"#ff0000"}},{"type":"Feature","geometry":{"type":"Point","coordinates":[-3.185621,55.943065]},"properties":{"location":"toned.deflection.bland","rgb-string":"#ff8000","marker-symbol":"danger","marker-color":"#ff8000"}},{"type":"Feature","geometry":{"type":"Point","coordinates":[-3.186344,55.942958]},"properties":{"location":"hers.banks.goat","rgb-string":"#ff8000","marker-symbol":"danger","marker-color":"#ff8000"}},{"type":"Feature","geometry":{"type":"Point","coordinates":[-3.18697,55.942688]},"properties":{"location":"strut.river.surely","rgb-string":"#ff8000","marker-symbol":"danger","marker-color":"#ff8000"}},{"type":"Feature","geometry":{"type":"Point","coordinates":[-3.187018,55.942877]},"properties":{"location":"valve.elaborate.fortunate","rgb-string":"#ff8000","marker-symbol":"danger","marker-color":"#ff8000"}},{"type":"Feature","geometry":{"type":"Point","coordinates":[-3.188608,55.943119]},"properties":{"location":"groups.ideas.script","rgb-string":"#80ff00","marker-symbol":"lighthouse","marker-color":"#80ff00"}},{"type":"Feature","geometry":{"type":"Point","coordinates":[-3.189234,55.943012]},"properties":{"location":"region.passes.pencil","rgb-string":"#80ff00","marker-symbol":"lighthouse","marker-color":"#80ff00"}},{"type":"Feature","geometry":{"type":"Point","coordinates":[-3.189523,55.943551]},"properties":{"location":"cars.attend.hotels","rgb-string":"#40ff00","marker-symbol":"lighthouse","marker-color":"#40ff00"}},{"type":"Feature","geometry":{"type":"Point","coordinates":[-3.190197,55.943443]},"properties":{"location":"arts.dish.scarcely","rgb-string":"#00ff00","marker-symbol":"lighthouse","marker-color":"#00ff00"}},{"type":"Feature","geometry":{"type":"Point","coordinates":[-3.190438,55.943982]},"properties":{"location":"pump.wheels.hulk","rgb-string":"#000000","marker-symbol":"cross","marker-color":"#000000"}},{"type":"Feature","geometry":{"type":"Point","coordinates":[-3.191161,55.943362]},"properties":{"location":"meal.feed.large","rgb-string":"#00ff00","marker-symbol":"lighthouse","marker-color":"#00ff00"}},{"type":"Feature","geometry":{"type":"Point","coordinates":[-3.191065,55.94444]},"properties":{"location":"paying.crowd.weep","rgb-string":"#ffc000","marker-symbol":"danger","marker-color":"#ffc000"}},{"type":"Feature","geometry":{"type":"Point","coordinates":[-3.191594,55.945195]},"properties":{"location":"hills.feels.tunes","rgb-string":"#ff8000","marker-symbol":"danger","marker-color":"#ff8000"}},{"type":"Feature","geometry":{"type":"Point","coordinates":[-3.192221,55.945114]},"properties":{"location":"useful.hike.trades","rgb-string":"#000000","marker-symbol":"cross","marker-color":"#000000"}},{"type":"Feature","geometry":{"type":"Point","coordinates":[-3.191883,55.946003]},"properties":{"location":"stone.undulation.poems","rgb-string":"#c0ff00","marker-symbol":"lighthouse","marker-color":"#c0ff00"}},{"type":"Feature","geometry":{"type":"Point","coordinates":[-3.191257,55.945599]},"properties":{"location":"skins.engage.best","rgb-string":"#ffc000","marker-symbol":"danger","marker-color":"#ffc000"}},{"type":"Feature","geometry":{"type":"Point","coordinates":[-3.191016,55.945248]},"properties":{"location":"maple.limit.hotels","rgb-string":"#ff0000","marker-symbol":"danger","marker-color":"#ff0000"}},{"type":"Feature","geometry":{"type":"Point","coordinates":[-3.190438,55.945383]},"properties":{"location":"jump.crop.fits","rgb-string":"#ff8000","marker-symbol":"danger","marker-color":"#ff8000"}},{"type":"Feature","geometry":{"type":"Point","coordinates":[-3.189957,55.94603]},"properties":{"location":"love.behind.orchestra","rgb-string":"#ff4000","marker-symbol":"danger","marker-color":"#ff4000"}},{"type":"Feature","geometry":{"type":"Point","coordinates":[-3.18856,55.946057]},"properties":{"location":"boost.radar.stress","rgb-string":"#ffc000","marker-symbol":"danger","marker-color":"#ffc000"}},{"type":"Feature","geometry":{"type":"Point","coordinates":[-3.187404,55.945949]},"properties":{"location":"slips.mass.baking","rgb-string":"#ff4000","marker-symbol":"danger","marker-color":"#ff4000"}},{"type":"Feature","geometry":{"type":"Point","coordinates":[-3.188897,55.945707]},"properties":{"location":"stops.else.chats","rgb-string":"#ffc000","marker-symbol":"danger","marker-color":"#ffc000"}},{"type":"Feature","geometry":{"type":"Point","coordinates":[-3.189812,55.94409]},"properties":{"location":"cliff.asleep.wedge","rgb-string":"#000000","marker-symbol":"cross","marker-color":"#000000"}},{"type":"Feature","geometry":{"type":"Point","coordinates":[-3.187982,55.943497]},"properties":{"location":"scare.cubs.resort","rgb-string":"#40ff00","marker-symbol":"lighthouse","marker-color":"#40ff00"}}]}