{"type":"FeatureCollection","features":[{"type":"Feature","geometry":{"type":"LineString","coordinates":[[-3.1878,55.9444],[-3.1875,55.9444],[-3.1878,55.9444],[-3.1875046,55.9444521],[-3.1872046,55.9444521],[-3.1870546,55.9441923],[-3.1868617,55.9439625],[-3.1865798,55.9440651],[-3.1868753,55.944013],[-3.1871051,55.9442058],[-3.1872077,55.9444877],[-3.1869122,55.9445398],[-3.1867194,55.9447696],[-3.1864596,55.9449196],[-3.1863096,55.9451794],[-3.1861596,55.9454393],[-3.1860096,55.9456991],[-3.1858596,55.9459589],[-3.1855998,55.9458089],[-3.18534,55.9456589],[-3.1850581,55.9455563],[-3.1847983,55.9454063],[-3.1845164,55.9453037],[-3.1846664,55.9450438],[-3.1848592,55.944814],[-3.185119,55.944664],[-3.184969,55.9444042],[-3.184819,55.9441444],[-3.184669,55.9438846],[-3.1847211,55.9435892],[-3.1847732,55.9432937],[-3.185033,55.9431437],[-3.1852928,55.9429937],[-3.1855747,55.9428911],[-3.1858701,55.942839],[-3.1861656,55.9427869],[-3.186461,55.9427348],[-3.1867565,55.9426827],[-3.1869863,55.9428756],[-3.1872461,55.9430256],[-3.1875059,55.9431756],[-3.1877657,55.9433256],[-3.1878683,55.9436075],[-3.1881502,55.9435049],[-3.1884321,55.9434023],[-3.1886919,55.9432523],[-3.1889738,55.9431497],[-3.1892693,55.9432018],[-3.1894193,55.9434616],[-3.1895693,55.9437214],[-3.1898693,55.9437214],[-3.1901693,55.9437214],[-3.1903991,55.9435285],[-3.1905919,55.9432987],[-3.1908218,55.9431059],[-3.1910146,55.9428761],[-3.1911172,55.943158],[-3.1910146,55.9434399],[-3.1907848,55.9436327],[-3.1905919,55.9438625],[-3.1908517,55.9440125],[-3.1911116,55.9441625],[-3.1910595,55.944458],[-3.1910595,55.944758],[-3.1908296,55.9449508],[-3.1909796,55.9452106],[-3.1906977,55.9453132],[-3.1903977,55.9453132],[-3.1901158,55.9454158],[-3.1898158,55.9454158],[-3.189556,55.9452658],[-3.1892962,55.9451158],[-3.1890364,55.9452658],[-3.1887364,55.9452658],[-3.188839,55.9455478],[-3.188689,55.9458076],[-3.1884292,55.9459576],[-3.188659,55.9457647],[-3.1884292,55.9455719],[-3.1882792,55.9453121],[-3.1881292,55.9450523],[-3.1879364,55.9448225],[-3.1878338,55.9445405]]},"properties":{}},{"type":"Feature","geometry":{"type":"Point","coordinates":[-3.187789,55.944386]},"properties":{"location":"thank.salsa.brain","rgb-string":"#40ff00","marker-symbol":"lighthouse","marker-color":"#40ff00"}},{"type":"Feature","geometry":{"type":"Point","coordinates":[-3.187307,55.944494]},"properties":{"location":"only.fairly.rift","rgb-string":"#c0ff00","marker-symbol":"lighthouse","marker-color":"#c0ff00"}},{"type":"Feature","geometry":{"type":"Point","coordinates":[-3.186537,55.944063]},"properties":{"location":"lime.learns.front","rgb-string":"#000000","marker-symbol":"cross","marker-color":"#000000"}},{"type":"Feature","geometry":{"type":"Point","coordinates":[-3.187018,55.943982]},"properties":{"location":"renew.ears.tend","rgb-string":"#80ff00","marker-symbol":"lighthouse","marker-color":"#80ff00"}},{"type":"Feature","geometry":{"type":"Point","coordinates":[-3.186777,55.944575]},"properties":{"location":"artist.gets.react","rgb-string":"#ff8000","marker-symbol":"danger","marker-color":"#ff8000"}},{"type":"Feature","geometry":{"type":"Point","coordinates":[-3.185814,55.94603]},"properties":{"location":"renew.slows.basket","rgb-string":"#ff0000","marker-symbol":"danger","marker-color":"#ff0000"}},{"type":"Feature","geometry":{"type":"Point","coordinates":[-3.184513,55.945302]},"properties":{"location":"settle.title.united","rgb-string":"#40ff00","marker-symbol":"lighthouse","marker-color":"#40ff00"}},{"type":"Feature","geometry":{"type":"Point","coordinates":[-3.184899,55.944736]},"properties":{"location":"slide.leads.stores","rgb-string":"#ff4000","marker-symbol":"danger","marker-color":"#ff4000"}},{"type":"Feature","geometry":{"type":"Point","coordinates":[-3.185236,55.944575]},"properties":{"location":"acid.chair.butter","rgb-string":"#ff8000","marker-symbol":"danger","marker-color":"#ff8000"}},{"type":"Feature","geometry":{"type":"Point","coordinates":[-3.184658,55.943874]},"properties":{"location":"rider.mile.lime","rgb-string":"#ff4000","marker-symbol":"danger","marker-color":"#ff4000"}},{"type":"Feature","geometry":{"type":"Point","coordinates":[-3.184803,55.943173]},"properties":{"location":"brings.remedy.latter","rgb-string":"#ff4000","marker-symbol":"danger","marker-color":"#ff4000"}},{"type":"Feature","geometry":{"type":"Point","coordinates":[-3.185573,55.942877]},"properties":{"location":"dent.shins.cycle","rgb-string":"#ff4000","marker-symbol":"danger","marker-color":"#ff4000"}},{"type":"Feature","geometry":{"type":"Point","coordinates":[-3.186248,55.942796]},"properties":{"location":"under.retire.bump","rgb-string":"#ff8000","marker-symbol":"danger","marker-color":"#ff8000"}},{"type":"Feature","geometry":{"type":"Point","coordinates":[-3.18697,55.942688]},"properties":{"location":"strut.river.surely","rgb-string":"#ff8000","marker-symbol":"danger","marker-color":"#ff8000"}},{"type":"Feature","geometry":{"type":"Point","coordinates":[-3.187982,55.943497]},"properties":{"location":"scare.cubs.resort","rgb-string":"#00ff00","marker-symbol":"lighthouse","marker-color":"#00ff00"}},{"type":"Feature","geometry":{"type":"Point","coordinates":[-3.189234,55.943012]},"properties":{"location":"region.passes.pencil","rgb-string":"#80ff00","marker-symbol":"lighthouse","marker-color":"#80ff00"}},{"type":"Feature","geometry":{"type":"Point","coordinates":[-3.189619,55.94382]},"properties":{"location":"burn.spot.across","rgb-string":"#40ff00","marker-symbol":"lighthouse","marker-color":"#40ff00"}},{"type":"Feature","geometry":{"type":"Point","coordinates":[-3.190294,55.943712]},"properties":{"location":"sculpture.shot.melon","rgb-string":"#40ff00","marker-symbol":"lighthouse","marker-color":"#40ff00"}},{"type":"Feature","geometry":{"type":"Point","coordinates":[-3.191161,55.942742]},"properties":{"location":"along.spill.limp","rgb-string":"#00ff00","marker-symbol":"lighthouse","marker-color":"#00ff00"}},{"type":"Feature","geometry":{"type":"Point","coordinates":[-3.191161,55.943362]},"properties":{"location":"meal.feed.large","rgb-string":"#40ff00","marker-symbol":"lighthouse","marker-color":"#40ff00"}},{"type":"Feature","geometry":{"type":"Point","coordinates":[-3.190438,55.943982]},"properties":{"location":"pump.wheels.hulk","rgb-string":"#40ff00","marker-symbol":"lighthouse","marker-color":"#40ff00"}},{"type":"Feature","geometry":{"type":"Point","coordinates":[-3.191113,55.94417]},"properties":{"location":"hills.giant.crate","rgb-string":"#00ff00","marker-symbol":"lighthouse","marker-color":"#00ff00"}},{"type":"Feature","geometry":{"type":"Point","coordinates":[-3.191016,55.944979]},"properties":{"location":"shapes.sheep.nature","rgb-string":"#ffc000","marker-symbol":"danger","marker-color":"#ffc000"}},{"type":"Feature","geometry":{"type":"Point","coordinates":[-3.191016,55.945248]},"properties":{"location":"maple.limit.hotels","rgb-string":"#ff0000","marker-symbol":"danger","marker-color":"#ff0000"}},{"type":"Feature","geometry":{"type":"Point","coordinates":[-3.190438,55.945383]},"properties":{"location":"jump.crop.fits","rgb-string":"#ffc000","marker-symbol":"danger","marker-color":"#ffc000"}},{"type":"Feature","geometry":{"type":"Point","coordinates":[-3.18986,55.945491]},"properties":{"location":"turkey.limit.ramp","rgb-string":"#ff8000","marker-symbol":"danger","marker-color":"#ff8000"}},{"type":"Feature","geometry":{"type":"Point","coordinates":[-3.189186,55.945087]},"properties":{"location":"number.exist.rate","rgb-string":"#c0ff00","marker-symbol":"lighthouse","marker-color":"#c0ff00"}},{"type":"Feature","geometry":{"type":"Point","coordinates":[-3.188801,55.945437]},"properties":{"location":"shady.soft.phones","rgb-string":"#ffc000","marker-symbol":"danger","marker-color":"#ffc000"}},{"type":"Feature","geometry":{"type":"Point","coordinates":[-3.188897,55.945707]},"properties":{"location":"stops.else.chats","rgb-string":"#ffc000","marker-symbol":"danger","marker-color":"#ffc000"}},{"type":"Feature","geometry":{"type":"Point","coordinates":[-3.18856,55.946057]},"properties":{"location":"boost.radar.stress","rgb-string":"#ffc000","marker-symbol":"danger","marker-color":"#ffc000"}},{"type":"Feature","geometry":{"type":"Point","coordinates":[-3.188463,55.945761]},"properties":{"location":"bend.tubes.chops","rgb-string":"#ff4000","marker-symbol":"danger","marker-color":"#ff4000"}},{"type":"Feature","geometry":{"type":"Point","coordinates":[-3.188319,55.945518]},"properties":{"location":"skills.less.herb","rgb-string":"#ff8000","marker-symbol":"danger","marker-color":"#ff8000"}},{"type":"Feature","geometry":{"type":"Point","coordinates":[-3.187885,55.944709]},"properties":{"location":"hurt.green.filer","rgb-string":"#80ff00","marker-symbol":"lighthouse","marker-color":"#80ff00"}}]}