{"type":"FeatureCollection","features":[{"type":"Feature","geometry":{"type":"LineString","coordinates":[[-3.1878,55.9444],[-3.1879928,55.9441702],[-3.1881857,55.9439404],[-3.1883785,55.9437106],[-3.1886083,55.9435177],[-3.1888012,55.9437475],[-3.1888012,55.9440475],[-3.1890831,55.9439449],[-3.1893785,55.9438928],[-3.1896604,55.9439954],[-3.1899423,55.9438928],[-3.1902021,55.9437428],[-3.190395,55.9439726],[-3.1902924,55.9436907],[-3.1903445,55.9433953],[-3.1901516,55.9431655],[-3.1899588,55.9429357],[-3.1897659,55.9427059],[-3.1900479,55.9428085],[-3.1903298,55.9429111],[-3.1906117,55.9430137],[-3.1909071,55.9430658],[-3.1911369,55.9432586],[-3.1911369,55.9435586],[-3.1911369,55.9438586],[-3.1911369,55.9441586],[-3.1910848,55.9444541],[-3.190892,55.9446839],[-3.1909441,55.9449793],[-3.1908415,55.9452612],[-3.1910713,55.9454541],[-3.1913311,55.9456041],[-3.1915609,55.9457969],[-3.1918207,55.9459469],[-3.1915207,55.9459469],[-3.1912207,55.9459469],[-3.1909207,55.9459469],[-3.1906207,55.9459469],[-3.1903253,55.945999],[-3.1900253,55.945999],[-3.1897655,55.945849],[-3.1894836,55.9457464],[-3.1892017,55.945849],[-3.1889198,55.9459516],[-3.1886378,55.9460542],[-3.1884878,55.9457944],[-3.1883378,55.9455346],[-3.1880559,55.9456372],[-3.1877961,55.9457872],[-3.1875142,55.9458898],[-3.1872844,55.945697],[-3.1869844,55.945697],[-3.1866844,55.945697],[-3.186389,55.945749],[-3.1861071,55.9458517],[-3.1858252,55.9459543],[-3.1855432,55.9460569],[-3.1852432,55.9460569],[-3.1850504,55.9458271],[-3.1849004,55.9455672],[-3.1847076,55.9453374],[-3.1845576,55.9450776],[-3.1846097,55.9447822],[-3.1846618,55.9444867],[-3.1847644,55.9442048],[-3.1848165,55.9439094],[-3.1849191,55.9436275],[-3.1851119,55.9438573],[-3.1854119,55.9438573],[-3.1857119,55.9438573],[-3.1859417,55.9440501],[-3.1861346,55.9442799],[-3.1862846,55.9445398],[-3.1861346,55.9442799],[-3.1861346,55.9439799],[-3.1861866,55.9436845],[-3.1861866,55.9433845],[-3.1862387,55.9430891],[-3.1864316,55.9428592],[-3.1867135,55.9427566],[-3.1869954,55.9428592],[-3.1871454,55.9431191],[-3.1872954,55.9433789],[-3.187398,55.9436608],[-3.1873459,55.9439562],[-3.1875757,55.944149],[-3.1877686,55.9443789],[-3.1878712,55.9446608]]},"properties":{}},{"type":"Feature","geometry":{"type":"Point","coordinates":[-3.188704,55.943389]},"properties":{"location":"system.speak.guard","rgb-string":"#00ff00","marker-symbol":"lighthouse","marker-color":"#00ff00"}},{"type":"Feature","geometry":{"type":"Point","coordinates":[-3.188945,55.943928]},"properties":{"location":"noted.friday.jams","rgb-string":"#00ff00","marker-symbol":"lighthouse","marker-color":"#00ff00"}},{"type":"Feature","geometry":{"type":"Point","coordinates":[-3.189619,55.94382]},"properties":{"location":"burn.spot.across","rgb-string":"#40ff00","marker-symbol":"lighthouse","marker-color":"#40ff00"}},{"type":"Feature","geometry":{"type":"Point","coordinates":[-3.190294,55.943712]},"properties":{"location":"sculpture.shot.melon","rgb-string":"#40ff00","marker-symbol":"lighthouse","marker-color":"#40ff00"}},{"type":"Feature","geometry":{"type":"Point","coordinates":[-3.190438,55.943982]},"properties":{"location":"pump.wheels.hulk","rgb-string":"#40ff00","marker-symbol":"lighthouse","marker-color":"#40ff00"}},{"type":"Feature","geometry":{"type":"Point","coordinates":[-3.190197,55.943443]},"properties":{"location":"arts.dish.scarcely","rgb-string":"#40ff00","marker-symbol":"lighthouse","marker-color":"#40ff00"}},{"type":"Feature","geometry":{"type":"Point","coordinates":[-3.189764,55.942661]},"properties":{"location":"hooked.shine.third","rgb-string":"#40ff00","marker-symbol":"lighthouse","marker-color":"#40ff00"}},{"type":"Feature","geometry":{"type":"Point","coordinates":[-3.190727,55.943092]},"properties":{"location":"relate.chill.vest","rgb-string":"#40ff00","marker-symbol":"lighthouse","marker-color":"#40ff00"}},{"type":"Feature","geometry":{"type":"Point","coordinates":[-3.191161,55.943065]},"properties":{"location":"else.urban.museum","rgb-string":"#000000","marker-symbol":"cross","marker-color":"#000000"}},{"type":"Feature","geometry":{"type":"Point","coordinates":[-3.191113,55.943631]},"properties":{"location":"loaf.cheer.slave","rgb-string":"#00ff00","marker-symbol":"lighthouse","marker-color":"#00ff00"}},{"type":"Feature","geometry":{"type":"Point","coordinates":[-3.191065,55.944709]},"properties":{"location":"estate.gave.votes","rgb-string":"#40ff00","marker-symbol":"lighthouse","marker-color":"#40ff00"}},{"type":"Feature","geometry":{"type":"Point","coordinates":[-3.191016,55.945248]},"properties":{"location":"maple.limit.hotels","rgb-string":"#ff0000","marker-symbol":"danger","marker-color":"#ff0000"}},{"type":"Feature","geometry":{"type":"Point","coordinates":[-3.191883,55.946003]},"properties":{"location":"stone.undulation.poems","rgb-string":"#ff8000","marker-symbol":"danger","marker-color":"#ff8000"}},{"type":"Feature","geometry":{"type":"Point","coordinates":[-3.189957,55.94603]},"properties":{"location":"love.behind.orchestra","rgb-string":"#ff8000","marker-symbol":"danger","marker-color":"#ff8000"}},{"type":"Feature","geometry":{"type":"Point","coordinates":[-3.18933,55.945653]},"properties":{"location":"museum.spicy.horns","rgb-string":"#ff0000","marker-symbol":"danger","marker-color":"#ff0000"}},{"type":"Feature","geometry":{"type":"Point","coordinates":[-3.18856,55.946057]},"properties":{"location":"boost.radar.stress","rgb-string":"#ffc000","marker-symbol":"danger","marker-color":"#ffc000"}},{"type":"Feature","geometry":{"type":"Point","coordinates":[-3.188463,55.945761]},"properties":{"location":"bend.tubes.chops","rgb-string":"#ff4000","marker-symbol":"danger","marker-color":"#ff4000"}},{"type":"Feature","geometry":{"type":"Point","coordinates":[-3.188319,55.945518]},"properties":{"location":"skills.less.herb","rgb-string":"#ffc000","marker-symbol":"danger","marker-color":"#ffc000"}},{"type":"Feature","geometry":{"type":"Point","coordinates":[-3.187404,55.945949]},"properties":{"location":"slips.mass.baking","rgb-string":"#ffc000","marker-symbol":"danger","marker-color":"#ffc000"}},{"type":"Feature","geometry":{"type":"Point","coordinates":[-3.187259,55.945653]},"properties":{"location":"diner.leaves.mutual","rgb-string":"#ff0000","marker-symbol":"danger","marker-color":"#ff0000"}},{"type":"Feature","geometry":{"type":"Point","coordinates":[-3.186729,55.945653]},"properties":{"location":"hidden.handle.softly","rgb-string":"#ffc000","marker-symbol":"danger","marker-color":"#ffc000"}},{"type":"Feature","geometry":{"type":"Point","coordinates":[-3.186296,55.945761]},"properties":{"location":"posts.kicked.universally","rgb-string":"#ff0000","marker-symbol":"danger","marker-color":"#ff0000"}},{"type":"Feature","geometry":{"type":"Point","coordinates":[-3.185332,55.946138]},"properties":{"location":"prime.rent.silk","rgb-string":"#ff0000","marker-symbol":"danger","marker-color":"#ff0000"}},{"type":"Feature","geometry":{"type":"Point","coordinates":[-3.184465,55.944952]},"properties":{"location":"sports.topic.clocks","rgb-string":"#ffc000","marker-symbol":"danger","marker-color":"#ffc000"}},{"type":"Feature","geometry":{"type":"Point","coordinates":[-3.184947,55.943443]},"properties":{"location":"sentences.sings.modern","rgb-string":"#000000","marker-symbol":"cross","marker-color":"#000000"}},{"type":"Feature","geometry":{"type":"Point","coordinates":[-3.18514,55.943685]},"properties":{"location":"hello.love.keys","rgb-string":"#ff4000","marker-symbol":"danger","marker-color":"#ff4000"}},{"type":"Feature","geometry":{"type":"Point","coordinates":[-3.186007,55.943901]},"properties":{"location":"teams.mild.played","rgb-string":"#ffc000","marker-symbol":"danger","marker-color":"#ffc000"}},{"type":"Feature","geometry":{"type":"Point","coordinates":[-3.186392,55.944656]},"properties":{"location":"rated.fired.crowds","rgb-string":"#ff0000","marker-symbol":"danger","marker-color":"#ff0000"}},{"type":"Feature","geometry":{"type":"Point","coordinates":[-3.186248,55.942796]},"properties":{"location":"under.retire.bump","rgb-string":"#ff0000","marker-symbol":"danger","marker-color":"#ff0000"}},{"type":"Feature","geometry":{"type":"Point","coordinates":[-3.18697,55.942688]},"properties":{"location":"strut.river.surely","rgb-string":"#ff8000","marker-symbol":"danger","marker-color":"#ff8000"}},{"type":"Feature","geometry":{"type":"Point","coordinates":[-3.1875,55.943874]},"properties":{"location":"begins.spider.drips","rgb-string":"#80ff00","marker-symbol":"lighthouse","marker-color":"#80ff00"}},{"type":"Feature","geometry":{"type":"Point","coordinates":[-3.187789,55.944386]},"properties":{"location":"thank.salsa.brain","rgb-string":"#40ff00","marker-symbol":"lighthouse","marker-color":"#40ff00"}},{"type":"Feature","geometry":{"type":"Point","coordinates":[-3.187885,55.944709]},"properties":{"location":"hurt.green.filer","rgb-string":"#c0ff00","marker-symbol":"lighthouse","marker-color":"#c0ff00"}}]}