{"type":"FeatureCollection","features":[{"type":"Feature","geometry":{"type":"LineString","coordinates":[[-3.1878,55.9444],[-3.1875181,55.9445026],[-3.1872362,55.9446052],[-3.1869407,55.9446573],[-3.1866809,55.9448073],[-3.1864211,55.9449573],[-3.186369,55.9452527],[-3.1863169,55.9455482],[-3.1861241,55.945778],[-3.1858241,55.945778],[-3.1855241,55.945778],[-3.1852643,55.945628],[-3.1849824,55.9455254],[-3.1847226,55.9453754],[-3.1844226,55.9453754],[-3.1846524,55.9451826],[-3.1848822,55.9449897],[-3.185112,55.9447969],[-3.1853418,55.9446041],[-3.1855716,55.9444112],[-3.1858536,55.9443086],[-3.1861355,55.9444112],[-3.1860834,55.9441158],[-3.186186,55.9438339],[-3.1858905,55.9437818],[-3.1855951,55.9437297],[-3.1852996,55.9436776],[-3.1851068,55.9434478],[-3.184914,55.943218],[-3.184914,55.942918],[-3.185214,55.942918],[-3.1855094,55.9428659],[-3.1854573,55.9431613],[-3.1857528,55.9431092],[-3.1860482,55.9430571],[-3.1863301,55.9429545],[-3.186612,55.9428519],[-3.1868939,55.9427493],[-3.186946,55.9430447],[-3.187246,55.9430447],[-3.187546,55.9430447],[-3.187846,55.9430447],[-3.1881415,55.9430968],[-3.1884415,55.9430968],[-3.1887369,55.9430447],[-3.1890369,55.9430447],[-3.1892297,55.9432746],[-3.1894596,55.9434674],[-3.1897596,55.9434674],[-3.1900596,55.9434674],[-3.1902524,55.9436972],[-3.1904024,55.943957],[-3.1906322,55.9437642],[-3.190862,55.9435713],[-3.1911218,55.9434213],[-3.1911218,55.9437213],[-3.1911218,55.9440213],[-3.1910697,55.9443168],[-3.1912197,55.9445766],[-3.1913697,55.9448364],[-3.1915197,55.9450962],[-3.1918197,55.9450962],[-3.1921197,55.9450962],[-3.1920676,55.9453916],[-3.191965,55.9456736],[-3.1919129,55.945969],[-3.1916531,55.945819],[-3.1913933,55.945669],[-3.1912005,55.9454392],[-3.1911484,55.9451437],[-3.1908665,55.9452463],[-3.1905846,55.945349],[-3.1903917,55.9455788],[-3.1901989,55.9458086],[-3.1899691,55.9460014],[-3.1896691,55.9460014],[-3.1893691,55.9460014],[-3.1890691,55.9460014],[-3.1887736,55.9460535],[-3.1884736,55.9460535],[-3.1881782,55.9460014],[-3.1878782,55.9460014],[-3.1875828,55.9459493],[-3.1878782,55.9458972],[-3.1881736,55.9458451],[-3.1884691,55.945793],[-3.1887645,55.9457409],[-3.1889145,55.9454811],[-3.1890645,55.9452213],[-3.1892145,55.9449615],[-3.1893645,55.9447017],[-3.1895574,55.9444719],[-3.1897074,55.9442121],[-3.1894255,55.9441095],[-3.1891436,55.9440069],[-3.1888616,55.9439043],[-3.1885797,55.9438017],[-3.1883199,55.9436517],[-3.188038,55.9435491],[-3.1879354,55.943831],[-3.1878833,55.9441264]]},"properties":{}},{"type":"Feature","geometry":{"type":"Point","coordinates":[-3.186537,55.944925]},"properties":{"location":"laws.merit.bleak","rgb-string":"#ff8000","marker-symbol":"danger","marker-color":"#ff8000"}},{"type":"Feature","geometry":{"type":"Point","coordinates":[-3.186296,55.945761]},"properties":{"location":"posts.kicked.universally","rgb-string":"#ff0000","marker-symbol":"danger","marker-color":"#ff0000"}},{"type":"Feature","geometry":{"type":"Point","coordinates":[-3.185621,55.945761]},"properties":{"location":"shed.desire.muddy","rgb-string":"#ffc000","marker-symbol":"danger","marker-color":"#ffc000"}},{"type":"Feature","geometry":{"type":"Point","coordinates":[-3.184513,55.945302]},"properties":{"location":"settle.title.united","rgb-string":"#ff0000","marker-symbol":"danger","marker-color":"#ff0000"}},{"type":"Feature","geometry":{"type":"Point","coordinates":[-3.18567,55.944359]},"properties":{"location":"atoms.vanish.foods","rgb-string":"#ff0000","marker-symbol":"danger","marker-color":"#ff0000"}},{"type":"Feature","geometry":{"type":"Point","coordinates":[-3.186103,55.944251]},"properties":{"location":"organs.shape.fantastic","rgb-string":"#c0ff00","marker-symbol":"lighthouse","marker-color":"#c0ff00"}},{"type":"Feature","geometry":{"type":"Point","coordinates":[-3.186007,55.943901]},"properties":{"location":"teams.mild.played","rgb-string":"#c0ff00","marker-symbol":"lighthouse","marker-color":"#c0ff00"}},{"type":"Feature","geometry":{"type":"Point","coordinates":[-3.18514,55.943685]},"properties":{"location":"hello.love.keys","rgb-string":"#00ff00","marker-symbol":"lighthouse","marker-color":"#00ff00"}},{"type":"Feature","geometry":{"type":"Point","coordinates":[-3.184754,55.943012]},"properties":{"location":"courier.assume.bill","rgb-string":"#ff8000","marker-symbol":"danger","marker-color":"#ff8000"}},{"type":"Feature","geometry":{"type":"Point","coordinates":[-3.185573,55.942877]},"properties":{"location":"dent.shins.cycle","rgb-string":"#ff8000","marker-symbol":"danger","marker-color":"#ff8000"}},{"type":"Feature","geometry":{"type":"Point","coordinates":[-3.185621,55.943065]},"properties":{"location":"toned.deflection.bland","rgb-string":"#ff8000","marker-symbol":"danger","marker-color":"#ff8000"}},{"type":"Feature","geometry":{"type":"Point","coordinates":[-3.186344,55.942958]},"properties":{"location":"hers.banks.goat","rgb-string":"#ffc000","marker-symbol":"danger","marker-color":"#ffc000"}},{"type":"Feature","geometry":{"type":"Point","coordinates":[-3.18697,55.942688]},"properties":{"location":"strut.river.surely","rgb-string":"#ff4000","marker-symbol":"danger","marker-color":"#ff4000"}},{"type":"Feature","geometry":{"type":"Point","coordinates":[-3.187018,55.942877]},"properties":{"location":"valve.elaborate.fortunate","rgb-string":"#ffc000","marker-symbol":"danger","marker-color":"#ffc000"}},{"type":"Feature","geometry":{"type":"Point","coordinates":[-3.188608,55.943119]},"properties":{"location":"groups.ideas.script","rgb-string":"#40ff00","marker-symbol":"lighthouse","marker-color":"#40ff00"}},{"type":"Feature","geometry":{"type":"Point","coordinates":[-3.189234,55.943012]},"properties":{"location":"region.passes.pencil","rgb-string":"#40ff00","marker-symbol":"lighthouse","marker-color":"#40ff00"}},{"type":"Feature","geometry":{"type":"Point","coordinates":[-3.189523,55.943551]},"properties":{"location":"cars.attend.hotels","rgb-string":"#40ff00","marker-symbol":"lighthouse","marker-color":"#40ff00"}},{"type":"Feature","geometry":{"type":"Point","coordinates":[-3.190197,55.943443]},"properties":{"location":"arts.dish.scarcely","rgb-string":"#40ff00","marker-symbol":"lighthouse","marker-color":"#40ff00"}},{"type":"Feature","geometry":{"type":"Point","coordinates":[-3.190438,55.943982]},"properties":{"location":"pump.wheels.hulk","rgb-string":"#000000","marker-symbol":"cross","marker-color":"#000000"}},{"type":"Feature","geometry":{"type":"Point","coordinates":[-3.191161,55.943362]},"properties":{"location":"meal.feed.large","rgb-string":"#40ff00","marker-symbol":"lighthouse","marker-color":"#40ff00"}},{"type":"Feature","geometry":{"type":"Point","coordinates":[-3.191065,55.94444]},"properties":{"location":"paying.crowd.weep","rgb-string":"#40ff00","marker-symbol":"lighthouse","marker-color":"#40ff00"}},{"type":"Feature","geometry":{"type":"Point","coordinates":[-3.191594,55.945195]},"properties":{"location":"hills.feels.tunes","rgb-string":"#ff8000","marker-symbol":"danger","marker-color":"#ff8000"}},{"type":"Feature","geometry":{"type":"Point","coordinates":[-3.192221,55.945114]},"properties":{"location":"useful.hike.trades","rgb-string":"#ff8000","marker-symbol":"danger","marker-color":"#ff8000"}},{"type":"Feature","geometry":{"type":"Point","coordinates":[-3.191883,55.946003]},"properties":{"location":"stone.undulation.poems","rgb-string":"#c0ff00","marker-symbol":"lighthouse","marker-color":"#c0ff00"}},{"type":"Feature","geometry":{"type":"Point","coordinates":[-3.191257,55.945599]},"properties":{"location":"skins.engage.best","rgb-string":"#ffc000","marker-symbol":"danger","marker-color":"#ffc000"}},{"type":"Feature","geometry":{"type":"Point","coordinates":[-3.191016,55.945248]},"properties":{"location":"maple.limit.hotels","rgb-string":"#ffc000","marker-symbol":"danger","marker-color":"#ffc000"}},{"type":"Feature","geometry":{"type":"Point","coordinates":[-3.190438,55.945383]},"properties":{"location":"jump.crop.fits","rgb-string":"#ff0000","marker-symbol":"danger","marker-color":"#ff0000"}},{"type":"Feature","geometry":{"type":"Point","coordinates":[-3.189957,55.94603]},"properties":{"location":"love.behind.orchestra","rgb-string":"#000000","marker-symbol":"cross","marker-color":"#000000"}},{"type":"Feature","geometry":{"type":"Point","coordinates":[-3.18856,55.946057]},"properties":{"location":"boost.radar.stress","rgb-string":"#ff0000","marker-symbol":"danger","marker-color":"#ff0000"}},{"type":"Feature","geometry":{"type":"Point","coordinates":[-3.187404,55.945949]},"properties":{"location":"slips.mass.baking","rgb-string":"#ff0000","marker-symbol":"danger","marker-color":"#ff0000"}},{"type":"Feature","geometry":{"type":"Point","coordinates":[-3.188897,55.945707]},"properties":{"location":"stops.else.chats","rgb-string":"#ff0000","marker-symbol":"danger","marker-color":"#ff0000"}},{"type":"Feature","geometry":{"type":"Point","coordinates":[-3.189812,55.94409]},"properties":{"location":"cliff.asleep.wedge","rgb-string":"#40ff00","marker-symbol":"lighthouse","marker-color":"#40ff00"}},{"type":"Feature","geometry":{"type":"Point","coordinates":[-3.187982,55.943497]},"properties":{"location":"scare.cubs.resort","rgb-string":"#40ff00","marker-symbol":"lighthouse","marker-color":"#40ff00"}}]}